id,name,mass_g,fall,year,latitude,longitude,class
5295,Castrovillari,15000,Fell,1583,39.8,16.2,Stone-uncl
16745,Morito,10100000,Found,1600,27.05,-105.43333,"Iron, IIIAB"
12069,Jalandhar,1967,Fell,1621,31,75,Iron
23732,Stretchleigh,10400,Fell,1623,50.38333,-3.95,Stone-uncl
11855,Hatford,29000,Fell,1628,51.65,-1.51667,Stone-uncl
16692,Minamino,1040,Fell,1632,35.07833,136.93333,L
16805,Mount Vaisi,17000,Fell,1637,44.08333,6.86667,Stone-uncl
18033,Ortenau,4500,Fell,1671,48.5,8,Stone-uncl
23457,Schellin,7000,Fell,1715,53.35,15.05,L
23615,Siratik,1700,Found,1716,14,-11,"Iron, IIAB"
23722,Steinbach,98000,Found,1724,50.5,12.5,"Iron, IVA-an"
22396,Rasgrad,24700,Fell,1740,43.5,26.53333,Stone-uncl
17994,Ogi,14360,Fell,1741,33.28333,130.2,H6
12356,Krasnojarsk,700000,Found,1749,54.9,91.8,"Pallasite, PMG-an"
11916,Hraschina,49000,Fell,1751,46.1,16.33333,"Iron, IID"
14757,Luponnas,14000,Fell,1753,46.21667,5,H3-5
23776,Tabor,7540,Fell,1753,49.4,14.65,H5
453,Albareto,2000,Fell,1766,44.65,11.01667,L/LL4
14724,Lucé,3500,Fell,1768,47.85,0.48333,L6
15446,Mauerkirchen,19000,Fell,1768,48.18333,13.13333,L6
23495,Sena,4000,Fell,1773,41.71667,-0.05,H4
22642,Rodach,2900,Fell,1775,50.35,10.8,Stone-uncl
24018,Toluca,3000000,Found,1776,19.56667,-99.56667,"Iron, IAB-sLL"
14695,Longchang,158500,Found,1781,29.3,105.3,"Iron, IVA-an"
5015,Bendegó,5360000,Found,1784,-10.11667,-39.2,"Iron, IC"
7775,Eichstädt,3000,Fell,1785,48.9,11.21667,H5
12291,Kharkov,1500,Fell,1787,50.625,35.075,L6
4942,Barbotan,6400,Fell,1790,43.95,-0.05,H5
30381,Zacatecas (1792),1000000,Found,1792,22.81667,-102.56667,"Iron, ungrouped"
5261,Cape of Good Hope,136000,Found,1793,-33.5,26,"Iron, IVB"
23586,Siena,3700,Fell,1794,43.11667,11.6,LL5
24325,Wold Cottage,25000,Fell,1795,54.13667,-0.41333,L6
5063,Bjelaja Zerkov,1850,Fell,1796,49.78333,30.16667,H6
18876,Portugal,4500,Fell,1796,38.5,-8,Stone-uncl
18884,Prambanan,500000,Found,1797,-7.56667,110.83333,"Iron, ungrouped"
5011,Benares (a),3700,Fell,1798,25.36667,82.91667,LL4
23111,Salles,9000,Fell,1798,46.05,4.63333,L5
2320,Apt,3200,Fell,1803,43.86667,5.38333,L6
12434,L'Aigle,37000,Fell,1803,48.76667,0.63333,L6
15443,Mässing,1600,Fell,1803,48.13333,12.61667,Howardite
5326,Charcas,1400000,Found,1804,23.08333,-101.01667,"Iron, IIIAB"
7751,Durango,164000,Found,1804,0,0,"Iron, IIIAB"
11884,High Possil,4500,Fell,1804,55.9,-4.23333,L6
16705,Misteca,10000,Found,1804,16.8,-97.1,"Iron, ungrouped"
5062,Bitburg,1500000,Found,1805,49.96667,6.53333,"Iron, IAB complex"
7718,Doroninsk,3891,Fell,1805,51.2,112.3,H5-7
448,Alais,6000,Fell,1806,44.11667,4.08333,CI1
24004,Timochin,65500,Fell,1807,54.5,35.2,H5
24249,Weston,150000,Fell,1807,41.266667,-73.266667,H4
5110,Borgo San Donino,1676,Fell,1808,44.86667,10.05,LL6
14661,Lissa,12800,Fell,1808,50.2,14.85,L6
22548,Red River,800000,Found,1808,32,-95,"Iron, IIIAB"
23713,Stannern,52000,Fell,1808,49.28333,15.56667,Eucrite-mmict
5130,Brahin,823000,Found,1810,52.5,30.33333,"Pallasite, PMG"
5296,Caswell County,1360,Fell,1810,36.5,-79.25,OC
5329,Charsonville,27000,Fell,1810,47.93333,1.56667,H6
16737,Mooresfort,3520,Fell,1810,52.45,-8.33333,H5
23167,Santa Rosa,825000,Found,1810,5.91667,-73,"Iron, IC"
5029,Berlanguillas,1440,Fell,1811,41.68333,-3.8,L6
12370,Kuleschovka,6000,Fell,1811,50.75,33.5,L6
5325,Chantonnay,31500,Fell,1812,46.68333,1.05,L6
10049,Erxleben,2250,Fell,1812,52.21667,11.25,H6
24036,Toulouse,1030,Fell,1812,43.6,1.4,H6
14652,Limerick,50000,Fell,1813,52.56667,-8.78333,H5
392,Agen,30000,Fell,1814,44.21667,0.61667,H5
4917,Bachmut,18000,Fell,1814,48.6,38,L6
12763,Lenarto,108500,Found,1814,49,21,"Iron, IIIAB"
5331,Chassigny,4000,Fell,1815,47.71667,5.36667,Martian (chassignite)
7750,Durala,13200,Fell,1815,30.3,76.63333,L6
5203,Cambria,16300,Found,1818,43.2,-78.8,"Iron, ungrouped"
5262,Cape York,58200000,Found,1818,76.13333,-64.93333,"Iron, IIIAB"
23501,Seres,8500,Fell,1818,41.05,23.56667,H4
23645,Slobodka,2750,Fell,1818,55,35,L4
30379,Zaborzika,3867,Fell,1818,50.28333,27.68333,L6
5172,Burlington,68000,Found,1819,42.75,-75.18333,"Iron, IIIE"
12202,Jonzac,5000,Fell,1819,45.43333,-0.45,Eucrite-mmict
18853,Pohlitz,3000,Fell,1819,50.93333,12.13333,L5
14670,Lixna,5213,Fell,1820,56,26.43333,H4
12214,Juvinas,91000,Fell,1821,44.71667,4.3,Eucrite-mmict
10839,Futtehpur,4000,Fell,1822,25.95,80.81667,L6
11444,Guilford County,1100,Found,1822,35.56667,-79.83333,"Iron, IIIAB"
12025,Imilac,920000,Found,1822,-24.20333,-68.80667,"Pallasite, PMG"
16984,Nobleborough,2300,Fell,1823,44.08333,-69.48333,Eucrite-pmict
22586,Renazzo,1000,Fell,1824,44.76667,11.28333,CR2
24037,Tounkin,2000,Fell,1824,51.73333,102.53333,OC
30397,Zebrak,2000,Fell,1824,49.88333,13.91667,H5
11904,Honolulu,2420,Fell,1825,21.3,-157.86667,L5
16904,Nanjemoy,7500,Fell,1825,38.41667,-77.16667,H6
30349,Yanhuitlan,421000,Found,1825,17.53333,-97.35,"Iron, IVA"
18176,Pavlograd,40000,Fell,1826,48.53333,35.98333,L6
5042,Bialystok,4000,Fell,1827,53.1,23.2,Eucrite-pmict
7728,Drake Creek,5000,Fell,1827,36.4,-86.5,L6
12393,La Caille,626000,Found,1828,43.73333,6.78333,"Iron, ungrouped"
22603,Richmond,1800,Fell,1828,37.46667,-77.5,LL5
5099,Bohumilitz,59000,Found,1829,49.05,13.76667,"Iron, IAB-MG"
10164,Forsyth,16300,Fell,1829,33.01667,-83.96667,L6
12355,Krasnoi-Ugol,2440,Fell,1829,54.03333,40.9,L6
12740,Launton,1060,Fell,1830,51.9,-1.11667,L6
24191,Vouillé,20000,Fell,1831,46.63333,0.16667,L6
24244,Wessely,3750,Fell,1831,48.95,17.38333,H5
24204,Walker County,74800,Found,1832,34,-87.16667,"Iron, IIAB"
5330,Charwallas,12000,Fell,1834,29.48333,75.5,H6
14651,Lime Creek,20000,Found,1834,31.55,-87.51667,"Iron, IAB-ung"
18002,Okniny,12000,Fell,1834,50.83333,25.5,LL6
5328,Charlotte,4300,Fell,1835,36.16667,-87.33333,"Iron, IVA"
10912,Gibeon,26000000,Found,1836,-25.5,18,"Iron, IVA"
15370,Macau,1500,Fell,1836,-5.2,-36.66667,H5
15438,Mascombes,1000,Fell,1836,45.36667,1.86667,L6
24257,Wichita County,145000,Found,1836,34.06667,-98.91667,"Iron, IAB-MG"
5387,Coahuila,2100000,Found,1837,28.7,-102.73333,"Iron, IIAB"
5450,Cosby's Creek,960000,Found,1837,35.78333,-83.25,"Iron, IAB-MG"
10051,Esnandes,1500,Fell,1837,46.25,-1.1,L6
11207,Gross-Divina,10500,Fell,1837,49.26667,18.71667,H5
30366,Yonozu,31650,Fell,1837,37.75,139,H4/5
427,Akbarpur,1800,Fell,1838,29.71667,77.95,H4
5320,Chandakapur,8800,Fell,1838,20.26667,76.01667,L5
5397,Cold Bokkeveld,5200,Fell,1838,-33.13333,19.38333,CM2
23602,Simbirsk (of P. Partsch),1500,Found,1838,54.3,48.4,OC
18906,Putnam County,32700,Found,1839,33.25,-83.25,"Iron, IVA"
23650,Smithland,5000,Found,1839,37.13333,-88.4,"Iron, IVA"
5282,Carthage,127000,Found,1840,36.26667,-85.98333,"Iron, IIIAB"
5308,Cereseto,6460,Fell,1840,45.08333,8.3,H5
12256,Karakol,3000,Fell,1840,47.21667,81.01667,LL6
15388,Magura,150000,Found,1840,49.33333,19.48333,"Iron, IAB-MG"
23654,Smithville,70500,Found,1840,35.98333,-85.85,"Iron, IAB-MG"
5332,Château-Renard,30000,Fell,1841,47.93333,2.91667,L6
11426,Grüneberg,1000,Fell,1841,51.93333,15.5,H4
18803,Petropavlovsk,7000,Found,1841,53.35,87.18333,"Iron, ungrouped"
23082,St. Christophe-la-Chartreuse,5500,Fell,1841,46.95,-1.5,L6
4900,Aumieres,2000,Fell,1842,44.33333,3.23333,L6
4916,Babb's Mill (Troost's Iron),6400,Found,1842,36.3,-82.88333,"Iron, ungrouped"
4946,Barea,3200,Fell,1842,42.38333,-2.5,Mesosiderite-A1
16640,Milena,10000,Fell,1842,46.18333,16.1,L6
5027,Berdyansk,2250,Found,1843,46.75,36.81667,L6
5059,Bishopville,6000,Fell,1843,34.16667,-80.28333,Aubrite
12332,Klein-Wenden,3250,Fell,1843,51.6,10.8,H6
24135,Utrecht,9700,Fell,1843,52.11667,5.18333,L6
24165,Verkhne Tschirskaia,8000,Fell,1843,48.41667,43.2,H5
5451,Cosina,1200,Fell,1844,21.16667,-100.86667,H5
10078,Favars,1500,Fell,1844,44.38333,2.81667,H5
22779,Ruff's Mountain,53070,Found,1844,34.3,-81.4,"Iron, IIIAB"
4951,Barratta,200000,Found,1845,-35.3,144.56667,L4
12748,Le Pressoir,3000,Fell,1845,47.16667,0.43333,H5
2351,Assam,2700,Found,1846,26,92,L5
5260,Cape Girardeau,2300,Fell,1846,37.26667,-89.58333,H6
6637,Deep Springs,11500,Found,1846,36.5,-79.75,"Iron, ungrouped"
16726,Monte Milone,3130,Fell,1846,43.26667,13.35,L5
16949,Netschaëvo,250000,Found,1846,54.23333,35.15,"Iron, IIE-an"
23460,Schönenberg,8000,Fell,1846,48.11667,10.46667,L6
5133,Braunau,39000,Fell,1847,50.6,16.3,"Iron, IIAB"
15424,Marion (Iowa),28400,Fell,1847,41.9,-91.6,L6
16877,Murfreesboro,8600,Found,1847,35.83333,-86.41667,"Iron, ungrouped"
23474,Seeläsgen,102000,Found,1847,52.26667,15.55,"Iron, IAB-MG"
23612,Singhur,14180,Found,1847,18.31667,73.91667,Pallasite?
6699,Dharwar,1800,Fell,1848,14.88333,75.6,OC
15429,Marmande,3000,Fell,1848,44.5,0.15,L5
5343,Chesterville,16500,Found,1849,34.7,-81.2,"Iron, IIAB"
16720,Monroe,8600,Fell,1849,35.25,-80.5,H4
12286,Kesen,135000,Fell,1850,38.98333,141.61667,H4
23113,Salt River,3600,Found,1850,37.95,-85.78333,"Iron, IIC"
23461,Schwetz,21500,Found,1850,53.4,18.45,"Iron, IIIAB"
23498,Seneca Falls,4000,Found,1850,42.91667,-76.78333,"Iron, IIIAB"
23521,Shalka,4000,Fell,1850,23.1,87.3,Diogenite
24061,Tucson,975000,Found,1850,31.85,-110.96667,"Iron, ungrouped"
11466,Gütersloh,1000,Fell,1851,51.91667,8.38333,H3/4
17959,Nulles,5000,Fell,1851,41.63333,0.75,H6
5113,Borkut,7000,Fell,1852,48.15,24.28333,L5
5181,Bustee,1500,Fell,1852,26.78333,82.83333,Aubrite
5363,Chupaderos,24300000,Found,1852,27,-105.1,"Iron, IIIAB"
15389,Mainz,1700,Found,1852,50,8.26667,L6
16628,Mezö-Madaras,22700,Fell,1852,46.5,25.73333,L3.7
22643,Rodeo,44000,Found,1852,25.33333,-104.66667,"Iron, IID"
30358,Yatoor,13600,Fell,1852,14.3,79.76667,H5
10917,Girgenti,18000,Fell,1853,37.31667,13.56667,L6
23476,Segowlie,6930,Fell,1853,26.75,84.78333,LL6
23891,Tazewell,27000,Found,1853,36.43333,-83.75,"Iron, IAB-sLH"
24122,Union County,6800,Found,1853,34.75,-84,"Iron, IC"
5463,Cranbourne,8600000,Found,1854,-38.1,145.3,"Iron, IAB-MG"
7738,Duel Hill (1854),21800,Found,1854,35.85,-82.7,"Iron, IVA"
14655,Linum,1862,Fell,1854,52.75,12.9,L6
15381,Madoc,168000,Found,1854,44.5,-77.46667,"Iron, IIIAB"
23178,Sarepta,14000,Found,1854,48.48333,44.81667,"Iron, IAB-MG"
24166,Verkhne Udinsk,18000,Found,1854,54.76667,113.98333,"Iron, IIIAB"
4950,Barranca Blanca,12000,Found,1855,-28.08333,-69.33333,"Iron, IIE-an"
5135,Bremervörde,7250,Fell,1855,53.4,9.1,H/L3.9
16915,Narraburra,32200,Found,1855,-34.25,147.7,"Iron, IIIAB"
17989,Oesel,6000,Fell,1855,58.5,23,L6
18023,Orange River (iron),148800,Found,1855,-30,25,"Iron, IIIAB"
18801,Petersburg,1800,Fell,1855,35.3,-86.63333,Eucrite-pmict
22792,Sabetmahet,1250,Fell,1855,27.43333,82.08333,H5
6659,Denton County,5400,Found,1856,33,-97,"Iron, IIIAB"
10167,Fort Pierre,15900,Found,1856,44.35,-100.38333,"Iron, IIIAB"
11473,Hainholz,16500,Found,1856,52.28333,8.91667,Mesosiderite-A4
16942,Nelson County,73030,Found,1856,37.75,-85.5,"Iron, IIIF"
24046,Trenzano,11800,Fell,1856,45.46667,10,H3/4
11875,Heredia,1000,Fell,1857,10,-84.1,H5
12218,Kaba,3000,Fell,1857,47.35,21.3,CV3
12741,Laurens County,2150,Found,1857,34.5,-82.03333,"Iron, ungrouped"
14673,Locust Grove,10000,Found,1857,33.33333,-84.1,"Iron, IIAB"
16694,Mincy,89400,Found,1857,36.55,-93.1,Mesosiderite-B4
17995,Ohaba,16250,Fell,1857,46.06667,23.58333,H5
18108,Parnallee,77600,Fell,1857,9.23333,78.35,LL3.6
22358,Quenggouk,6045,Fell,1857,17.76667,95.18333,H4
23717,Stavropol,1500,Fell,1857,45.05,41.98333,L6
4897,Augusta County,76000,Found,1858,38.16667,-79.08333,"Iron, IIIAB"
4903,Ausson,50000,Fell,1858,43.08333,0.58333,L5
12175,Joel's Iron,1300,Found,1858,-24,-69,"Iron, IIIAB"
16715,Molina,144000,Fell,1858,38.11667,-1.16667,H5
24045,Trenton,505000,Found,1858,43.36667,-88.13333,"Iron, IIIAB"
24336,Wooster,22700,Found,1858,40.76667,-81.95,"Iron, IAB-sLL"
5034,Beuste,2000,Fell,1859,43.21667,-0.23333,L5
18093,Pampanga,10500,Fell,1859,15.08333,120.7,L5
24021,Tombigbee River,43000,Found,1859,32.23333,-88.2,"Iron, IIG"
5379,Cleveland,115000,Found,1860,34.88333,-84.78333,"Iron, IIIAB"
5438,Coopertown,16800,Found,1860,36.43333,-87,"Iron, IIIE"
7640,Dhurmsala,32000,Fell,1860,32.23333,76.46667,LL6
12399,La Grange,50800,Found,1860,38.4,-85.36667,"Iron, IVA"
15433,Marshall County,6800,Found,1860,37,-88.25,"Iron, IIIAB"
16953,New Concord,230000,Fell,1860,40,-81.76667,L6
24171,Victoria West,2950,Found,1860,-31.7,23.75,"Iron, IAB-sHL"
5183,Butsura,29000,Fell,1861,27.08333,84.08333,H6
11206,Grosnaja,3500,Fell,1861,43.66667,45.38333,CV3
14762,Lutschaunig's Stone,100000,Found,1861,-27,-70,L6
24142,Vaca Muerta,3828000,Found,1861,-25.75,-70.5,Mesosiderite-A1
12340,Kokomo,1800,Found,1862,40.48333,-86.36667,"Iron, IVB"
15485,Menow,10500,Fell,1862,53.18333,13.15,H4
4919,Bacubirito,22000000,Found,1863,26.2,-107.83333,"Iron, ungrouped"
5178,Buschhof,5000,Fell,1863,46.45,25.78333,L6
5442,Copiapo,20000,Found,1863,-27.3,-70.4,"Iron, IAB-MG"
15402,Manbhoom,1700,Fell,1863,23.05,86.7,LL6
17976,Obernkirchen,41000,Found,1863,52.26667,9.1,"Iron, IVA"
18822,Pillistfer,23250,Fell,1863,58.66667,25.73333,EL6
22788,Russel Gulch,13200,Found,1863,39.8,-105.5,"Iron, IIIAB"
23085,St. Francois County,3600,Found,1863,37.75,-90.5,"Iron, IC"
23584,Shytal,3200,Fell,1863,24.33333,90.16667,L6
23652,Smith's Mountain,5000,Found,1863,36.41667,-80,"Iron, IIIAB"
24022,Tomhannock Creek,1500,Found,1863,42.88333,-73.6,H5
24038,Tourinnes-la-Grosse,14500,Fell,1863,50.78333,4.76667,L6
24194,Wabar,2550000,Found,1863,21.49972,50.47222,"Iron, IIIAB"
24199,Wairarapa Valley,6000,Found,1863,-41.31667,175.13333,H6
7659,Dolgovoli,1600,Fell,1864,50.75,25.3,L6
16945,Nerft,10250,Fell,1864,56.5,21.5,L6
18026,Orgueil,14000,Fell,1864,43.88333,1.38333,CI1
23798,Tamentit,510000,Found,1864,27.71667,-0.25,"Iron, IIIAB"
4899,Aumale,50000,Fell,1865,36.16667,3.66667,L6
7745,Dundrum,2270,Fell,1865,52.55,-8.03333,H5
10948,Gopalpur,1600,Fell,1865,24.23333,89.05,H6
16841,Muddoor,4400,Fell,1865,12.63333,77.01667,L5
23530,Shergotty,5000,Fell,1865,24.55,84.83333,Martian (shergottite)
23760,Supuhee,7235,Fell,1865,26.71667,84.21667,H6
24168,Vernon County,1500,Fell,1865,43.5,-91.16667,H6
4982,Bear Creek,227000,Found,1866,39.6,-105.3,"Iron, IIIAB"
5252,Cangas de Onis,34000,Fell,1866,43.38333,-5.15,H5
10176,Frankfort (iron),10900,Found,1866,38.2,-84.83333,"Iron, IIIAB"
12211,Juncal,104000,Found,1866,-26,-69.25,"Iron, IIIAB"
12335,Knyahinya,500000,Fell,1866,48.9,22.4,L/LL5
23092,St. Mesmin,8300,Fell,1866,48.45,3.93333,LL6
23667,Sone,17100,Fell,1866,35.16667,135.33333,H5
24104,Udipi,3600,Fell,1866,13.48333,74.78333,H5
4894,Auburn,3630,Found,1867,32.63333,-85.5,"Iron, IIG"
5188,Cacaria,41400,Found,1867,24.5,-104.8,"Iron, IIIAB"
5285,Casas Grandes,1545000,Found,1867,30.4,-107.8,"Iron, IIIAB"
18045,Otomi,6510,Fell,1867,38.4,140.35,H
23466,Scottsville,10000,Found,1867,36.76667,-86.16667,"Iron, IIAB"
23778,Tadjera,9000,Fell,1867,36.18333,5.41667,L5
5513,Daniel's Kuil,1064,Fell,1868,-28.2,24.56667,EL6
5514,Danville,2000,Fell,1868,34.4,-87.06667,L6
10938,Goalpara,2700,Found,1868,26.16667,90.6,Ureilite
14675,Lodran,1000,Fell,1868,29.53333,71.8,Lodranite
14715,Losttown,3000,Found,1868,34.25,-84.5,"Iron, IID"
16759,Moti-ka-nagla,1500,Fell,1868,26.83333,77.33333,H6
16762,Motta di Conti,9150,Fell,1868,45.2,8.5,H4
16806,Mount Vernon,159000,Found,1868,36.93333,-87.4,"Pallasite, PMG"
18030,Ornans,6000,Fell,1868,47.11667,6.15,CO3.4
18805,Pevensey,4300,Found,1868,-34.78333,144.66667,LL5
18901,Pultusk,250000,Fell,1868,52.76667,21.26667,H5
23123,San Francisco del Mezquital,7500,Found,1868,23.48333,-104.36667,"Iron, IIAB"
23188,Sauguis,4000,Fell,1868,43.15,-0.85,L6
23626,Slavetic,1708,Fell,1868,45.68333,15.6,H5
2302,Angra dos Reis (stone),1500,Fell,1869,-22.96667,-44.31667,Angrite
5263,Caperr,113900,Found,1869,-45.28333,-70.48333,"Iron, IIIAB"
11878,Hessle,20000,Fell,1869,59.85,17.66667,H5
12047,Iron Creek,175000,Found,1869,53,-112,"Iron, IIIAB"
12284,Kernouve,80000,Fell,1869,48.11667,-3.08333,H6
12353,Krähenberg,16500,Fell,1869,49.32694,7.46472,LL5
23535,Shingle Springs,39000,Found,1869,38.66667,-120.93333,"Iron, ungrouped"
23716,Staunton,43500,Found,1869,38.21667,-79.05,"Iron, IIIE"
24011,Tjabe,20000,Fell,1869,-7.08333,111.53333,H6
5185,Cabezo de Mayo,25000,Fell,1870,37.98333,-1.16667,L/LL6
5366,Cincinnati,1500,Found,1870,39.11667,-84.5,"Iron, IIAB"
11992,Ibbenbüren,2000,Fell,1870,52.28333,7.7,Diogenite
12022,Ilimaes (iron),51700,Found,1870,-26,-70,"Iron, IIIAB"
15463,McKinney,150000,Found,1870,33.18333,-96.71667,L4
16935,Nedagolla,4500,Fell,1870,18.68333,83.48333,"Iron, ungrouped"
4935,Bandong,11500,Fell,1871,-6.91667,107.6,LL6
5479,Cuba,1500,Found,1871,22,-80,"Iron, IAB?"
12045,Iquique,12500,Found,1871,-20.18333,-69.73333,"Iron, IVB"
12408,Laborel,3833,Fell,1871,44.28333,5.58333,H5
23472,Searsmont,5400,Fell,1871,44.36667,-69.2,H5
12455,Lancé,51700,Fell,1872,47.7,1.06667,CO3.5
16943,Nenntmannsdorf,12500,Found,1872,50.96667,13.95,"Iron, IIAB"
18034,Orvinio,3400,Fell,1872,42.13333,12.93333,H6
23160,Santa Apolonia,1316000,Found,1872,19.21667,-98.3,"Iron, IIIAB"
23898,Tennasilm,28500,Fell,1872,58.03333,26.95,L4
462,Aleppo,3200,Fell,1873,36.23333,37.13333,L6
5362,Chulafinnee,16220,Found,1873,33.5,-85.66667,"Iron, IIIAB"
7739,Duel Hill (1873),11300,Found,1873,35.85,-82.7,"Iron, IAB-MG"
12085,Jhung,5900,Fell,1873,31.3,72.38333,L5
12288,Khairpur,13600,Fell,1873,29.53333,72.3,EL6
18095,Paneth's Iron,150000,Found,1873,0,0,"Iron, IIIE"
23694,Ssyromolotovo,217000,Found,1873,58.61667,98.93333,"Iron, IIIAB"
24185,Virba,3600,Fell,1873,43.53333,22.63333,L6
24195,Waconda,50000,Found,1873,39.33333,-98.16667,L6
5182,Butler,41000,Found,1874,38.3,-94.36667,"Iron, ungrouped"
5190,Cachiyuyal,2500,Found,1874,-25,-69.5,"Iron, IIIE"
5291,Castalia,7300,Fell,1874,36.08333,-78.06667,H5
5432,Coolac,19280,Found,1874,-34.96667,148.125,"Iron, IAB-MG"
12282,Kerilis,5000,Fell,1874,48.4,-3.3,H5
23509,Sevrukovo,101000,Fell,1874,50.61667,36.6,L5
5256,Canyon City,8600,Found,1875,40.9,-123.1,"Iron, IIIAB"
11901,Homestead,230000,Fell,1875,41.8,-91.86667,L5
15472,Mejillones,14830,Found,1875,-23.1,-70.5,"Iron, IIAB"
16747,Mornans,1300,Fell,1875,44.6,5.13333,H5
17001,North Chile,300000,Found,1875,-23,-69,"Iron, IIAB"
23162,Santa Catharina,7000000,Found,1875,-26.21667,-48.6,"Iron, IAB-ung"
23503,Serrania de Varas,1500,Found,1875,-24.55,-69.06667,"Iron, IVA"
23616,Sitathali,1600,Fell,1875,20.91667,82.58333,H5
30351,Yardea,3290,Found,1875,-32.45,135.55,"Iron, IAB-MG"
4915,Babb's Mill (Blake's Iron),136000,Found,1876,36.3,-82.88333,"Iron, ungrouped"
15408,Mantos Blancos,10300,Found,1876,-23.45,-70.11667,"Iron, IVA"
22773,Rowton,3500,Fell,1876,52.76667,-2.51667,"Iron, IIIAB"
23712,Ställdalen,34000,Fell,1876,59.93333,14.95,H5
24154,Vavilovka,1932,Fell,1876,46.15,32.83333,LL6
5474,Cronstad,3650,Fell,1877,-27.7,27.3,H5
5500,Cynthiana,6000,Fell,1877,38.4,-84.25,L/LL4
23661,Soko-Banja,80000,Fell,1877,43.66667,21.86667,LL4
24215,Warrenton,1600,Fell,1877,38.68333,-91.15,CO3.7
5087,Bluff (a),153300,Found,1878,29.87861,-96.87222,L5
5511,Dandapur,5650,Fell,1878,26.91667,83.96667,L6
11824,Haraiya,1000,Fell,1878,26.8,82.53333,Eucrite-mmict
15489,Mern,4000,Fell,1878,55.05,12.06667,L6
22376,Rakovka,9000,Fell,1878,52.98333,37.03333,L6
23989,Tieschitz,28000,Fell,1878,49.6,17.11667,H/L3.6
5509,Dalton,53000,Found,1879,34.8,-84.98333,"Iron, IIIAB"
6656,Densmore (1879),37200,Found,1879,39.65,-99.68333,L6
10059,Estherville,320000,Fell,1879,43.41667,-94.83333,Mesosiderite-A3/4
10936,Gnadenfrei,1750,Fell,1879,50.66667,16.76667,H5
12056,Itapicuru-Mirim,2024,Fell,1879,-3.4,-44.33333,H5
12236,Kalumbi,4500,Fell,1879,17.83333,73.98333,L6
12392,La Bécasse,2800,Fell,1879,47.08333,1.75,L6
14647,Lick Creek,1240,Found,1879,35.66667,-80.25,"Iron, IIAB"
15392,Makarewa,2300,Found,1879,-46.31667,168.4,L6
16989,Nogoya,4000,Fell,1879,-32.36667,-59.83333,CM2
23897,Tenham,160000,Fell,1879,-25.73333,142.95,L6
2294,Andhara,2700,Fell,1880,26.58333,85.56667,Stone-uncl
5050,Bingera,10841,Found,1880,-29.88333,150.56667,"Iron, IIAB"
5402,Colfax,2300,Found,1880,35.3,-81.73333,"Iron, IAB-ung"
7761,Eagle Station,36000,Found,1880,38.61667,-84.96667,"Pallasite, PES"
11194,Greenbrier County,5000,Found,1880,37.83333,-80.31667,"Iron, IIIAB"
12062,Ivanpah,58000,Found,1880,35.33333,-115.31667,"Iron, IIIAB"
14644,Lexington County,4760,Found,1880,34,-81.25,"Iron, IAB-MG"
16844,Muizenberg,4610,Found,1880,-34.1,18.46667,L6
24162,Veramin,54000,Fell,1880,35.33333,51.63333,Mesosiderite-B2
24323,Wittekrantz,2200,Fell,1880,-32.5,23,L5
380,Admire,180000,Found,1881,38.7,-96.1,"Pallasite, PMG"
5351,Chilkoot,43000,Found,1881,59.33333,-136,"Iron, IIIAB"
5453,Costilla Peak,35500,Found,1881,36.83333,-105.23333,"Iron, IIIAB"
11208,Grossliebenthal,8000,Fell,1881,46.35,30.58333,L6
16632,Middlesbrough,1600,Fell,1881,54.56667,-1.16667,L6
18068,Pacula,3400,Fell,1881,21.05,-99.3,L6
23653,Smithsonian Iron,3510,Found,1881,0,0,"Iron, IIAB"
23978,Thunda,62100,Found,1881,-25.7,143.05,"Iron, IIIAB"
24283,Winburg,50000,Found,1881,-28.5,27,"Iron, IC-an"
5136,Brenham,4300000,Found,1882,37.5825,-99.16361,"Pallasite, PMG-an"
10836,Fukutomi,11620,Fell,1882,33.18333,130.2,L5
11880,Hex River Mountains,60000,Found,1882,-33.31667,19.61667,"Iron, IIAB"
16709,Mocs,300000,Fell,1882,46.8,24.03333,L5-6
18177,Pavlovka,2000,Fell,1882,52.03333,43,Howardite
22389,Rancho de la Pila (1882),46500,Found,1882,24.11667,-104.3,"Iron, IIIAB"
23121,San Cristobal,5000,Found,1882,-23.43333,-69.5,"Iron, IAB-ung"
466,Alfianello,228000,Fell,1883,45.26667,10.15,L6
10057,Estacado,290000,Found,1883,33.9,-101.75,H6
10955,Grand Rapids,51700,Found,1883,42.96667,-85.76667,"Iron, ungrouped"
12081,Jenny's Creek,12000,Found,1883,37.9,-82.38333,"Iron, IAB-MG"
16966,Ngawi,1393,Fell,1883,-7.45,111.41667,LL3.6
23172,São Julião de Moreira,162000,Found,1883,41.76611,-8.58361,"Iron, IIAB"
5319,Chañaral,1207,Found,1884,-26.5,-70.25,"Iron, IIIAB"
5448,Corrizatillo,1328,Found,1884,-26.03333,-70.33333,"Iron, IAB complex"
7652,Djati-Pengilon,166000,Fell,1884,-7.5,111.5,H6
10935,Glorieta Mountain,148000,Found,1884,35.6,-105.8,"Pallasite, PMG-an"
11813,Hammond,24000,Found,1884,44.91667,-92.43333,"Iron, ungrouped"
12174,Joe Wright Mountain,42600,Found,1884,35.76667,-91.5,"Iron, IIIAB"
12341,Kokstad,341000,Found,1884,-30.55,29.41667,"Iron, IIIE"
15487,Merceditas,42900,Found,1884,-26.33333,-70.28333,"Iron, IIIAB"
18835,Pirthalla,1161,Fell,1884,29.58333,76,H6
24094,Tysnes Island,19860,Fell,1884,60,5.61667,H4
30374,Youndegin,3800000,Found,1884,-32.1,117.71667,"Iron, IAB-MG"
5321,Chandpur,1100,Fell,1885,27.28333,79.05,L6
12071,Jamestown,4000,Found,1885,46.61667,-98.5,"Iron, IVA"
14749,Lucky Hill,20500,Found,1885,17.9,-77.63333,"Iron, IIIAB"
15453,Mazapil,4000,Fell,1885,24.68333,-101.68333,"Iron, IAB-sLL"
18174,Pavlodar (pallasite),4500,Found,1885,51.16667,77.33333,"Pallasite, PMG-an"
18903,Puquios,6580,Found,1885,-27.15,-69.91667,"Iron, IID"
23872,Tanokami Mountain,174000,Found,1885,34.91667,135.96667,"Iron, IIIE"
2353,Assisi,2000,Fell,1886,43.03333,12.55,H5
5186,Cabin Creek,48500,Fell,1886,35.5,-93.5,"Iron, IIIAB"
12372,Kulnine,55300,Found,1886,-34.15,141.78333,L6
12390,Kyushu,45000,Fell,1886,32.03333,130.63333,L6
16902,Nammianthal,4500,Fell,1886,12.28333,79.2,H5
17933,Novo-Urei,1900,Fell,1886,54.81667,46,Ureilite
22369,Rafrüti,18200,Found,1886,47,7.83333,"Iron, ungrouped"
24025,Tonganoxie,11800,Found,1886,39.08333,-95.11667,"Iron, IIIAB"
470,Algoma,4100,Found,1887,44.65,-87.46667,"Iron, IAB-sHL"
5043,Bielokrynitschie,1900,Fell,1887,50.13333,27.16667,H4
5277,Carlton,81200,Found,1887,31.91667,-98.03333,"Iron, IAB-sLM"
5461,Crab Orchard,48500,Found,1887,35.83333,-84.91667,Mesosiderite-A1
11896,Holland's Store,12200,Found,1887,34.36667,-85.43333,"Iron, IIAB"
12029,Indian Valley,14100,Found,1887,36.93333,-80.5,"Iron, IIAB"
12032,Indio Rico,15000,Found,1887,-38.33333,-60.88333,H6
12274,Kendall County,21000,Found,1887,29.4,-98.5,"Iron, IAB-ung"
16750,Morristown,16300,Found,1887,36.2,-83.38333,Mesosiderite-A3
16779,Mount Joy,384000,Found,1887,39.78333,-77.21667,"Iron, IIAB"
17979,Ochansk,500000,Fell,1887,57.78333,55.26667,H4
18094,Pan de Azucar,19500,Found,1887,-26.5,-69.5,"Iron, IAB complex"
18830,Pipe Creek,13600,Found,1887,29.68333,-98.91667,H6
23122,San Emigdio,36000,Found,1887,36,-119,H4
23597,Silver Crown,11600,Found,1887,41.23333,-104.98333,"Iron, IAB-MG"
24203,Waldron Ridge,13600,Found,1887,36.63333,-83.83333,"Iron, IAB complex"
5003,Bella Roca,33000,Found,1888,24.9,-105.4,"Iron, IIIAB"
5057,Bischtübe,48250,Found,1888,51.95,62.2,"Iron, IAB-sLL"
5458,Cowra,5560,Found,1888,-33.85,148.68333,"Iron, ungrouped"
10013,Eli Elwah,15200,Found,1888,-34.5,144.71667,L6
11817,Haniet-el-Beguel,2000,Found,1888,32.48333,4.4,"Iron, IAB complex"
12402,La Primitiva,27400,Found,1888,-19.91667,-69.81667,"Iron, IIG"
14680,Lonaconing,1400,Found,1888,39.41667,-79.15,"Iron, IAB-sHL"
16693,Minas Gerais,1224,Found,1888,-18.5,-44,L6
18833,Pirapora,6175,Found,1888,-17.3,-45,"Iron, IIAB"
23086,St. Genevieve County,244500,Found,1888,37.96667,-90.31667,"Iron, IIIF"
23979,Thurlow,5500,Found,1888,44.75,-77.58333,"Iron, IIIAB"
24235,Welland,8200,Found,1888,43.01667,-79.21667,"Iron, IIIAB"
2317,Apoala,85000,Found,1889,17.7,-97,"Iron, IIIAB"
6697,Dexter,1724,Found,1889,33.81667,-97,"Iron, IIIAB"
10044,Ergheo,20000,Fell,1889,1.16667,44.16667,L5
10915,Gilgoin,147000,Found,1889,-30.38333,147.2,H5
11907,Hopper,1800,Found,1889,36.55,-79.78333,"Iron, IIIAB"
12048,Iron River,1420,Found,1889,46.07944,-88.55972,"Iron, IVA"
12078,Jelica,34000,Fell,1889,43.83333,20.44167,LL6
12280,Kenton County,194000,Found,1889,38.81667,-84.6,"Iron, IIIAB"
14755,Lundsgård,11000,Fell,1889,56.21667,13.03333,L6
16634,Mighei,8000,Fell,1889,48.06667,30.96667,CM2
16710,Moctezuma,1700,Found,1889,29.8,-109.66667,"Iron, IAB-sLL"
24040,Travis County (a),175400,Found,1889,30.3,-97.7,H5
24041,Travis County (b),5900,Found,1889,30.55556,-97.95278,H4
4898,Augustinovka,400000,Found,1890,48.06667,35.08333,"Iron, IIIAB"
5077,Blue Tier,1400,Found,1890,-41.18333,148.03333,Iron
5139,Bridgewater,13600,Found,1890,35.71667,-81.86667,"Iron, IID"
5403,Collescipoli,5000,Fell,1890,42.53333,12.61667,H5
10074,Farmington,89400,Fell,1890,39.75,-97.03333,L5
10119,Forest City,152000,Fell,1890,43.25,-93.66667,H5
10173,Franceville,18800,Found,1890,38.81667,-104.61667,"Iron, IIIAB"
11852,Hassi-Jekna,1250,Fell,1890,28.95,0.81667,"Iron, IAB-sHL"
12087,Jianshi,600000,Fell,1890,30.80833,109.5,"Iron, IIIAB"
16703,Misshof,5800,Fell,1890,56.66667,23,H5
16746,Morland,295000,Found,1890,39.33333,-100.06667,H6
16894,Nagy-Vázsony,2000,Found,1890,46.98333,17.7,"Iron, IAB-sLL"
22794,Sacramento Mountains,237200,Found,1890,32.91667,-104.66667,"Iron, IIIAB"
23087,St. Germain-du-Pinel,4000,Fell,1890,48.01667,-1.15,H6
23536,Shirahagi,22700,Found,1890,36.7,137.36667,"Iron, IVA"
23744,Summit,1000,Found,1890,34.2,-86.48333,"Iron, IIAB"
24182,Villedieu,14000,Found,1890,47.91667,4.35,H4
24248,Western Arkansas,1750,Found,1890,35,-94,"Iron, IVA"
4924,Bald Eagle,3200,Found,1891,41.28333,-77.05,"Iron, IIIAB"
5257,Canyon Diablo,30000000,Found,1891,35.05,-111.03333,"Iron, IAB-MG"
10165,Forsyth County,22700,Found,1891,36.1,-80.2,"Iron, IIAB"
11440,Guêa,1915,Fell,1891,43.76667,20.23333,Stone-uncl
12027,Indarch,27000,Fell,1891,39.75,46.66667,EH4
12318,Kingston,12900,Found,1891,32.9,-107.73333,"Iron, ungrouped"
14694,Long Island,564000,Found,1891,39.93333,-99.6,L6
23903,Ternera,1980,Found,1891,-27.33333,-69.8,"Iron, IVB"
24034,Toubil River,22000,Found,1891,55.88333,89.1,"Iron, IIIAB"
4931,Ballinoo,42200,Found,1892,-27.7,115.76667,"Iron, IIC"
4936,Bansur,15000,Fell,1892,27.7,76.33333,L6
4974,Bath,21000,Fell,1892,45.41667,-98.31667,H4
5388,Cobija,6530,Found,1892,-22.56667,-70.25,H6
6620,Dayton,26300,Found,1892,39.75,-84.16667,"Iron, IAB-sLH"
11439,Guareña,39000,Fell,1892,38.73333,-6.01667,H6
16734,Moonbi,13200,Found,1892,-30.91667,151.28333,"Iron, IIIF"
16748,Morradal,2750,Found,1892,62,7.66667,"Iron, ungrouped"
22644,Roebourne,86860,Found,1892,-22.33333,118,"Iron, IIIAB"
23174,Saotome,10880,Found,1892,36.5,137,"Iron, IVA"
4986,Beaver Creek,14000,Fell,1893,51.16667,-117.33333,H5
7794,El Capitan,27500,Found,1893,33.5,-105.5,"Iron, IIIAB"
12267,Kaufman,23000,Found,1893,32.58333,-96.41667,L5
18032,Oroville,24500,Found,1893,39.68333,-121.63333,"Iron, IIIAB"
18796,Persimmon Creek,5000,Found,1893,35.05,-84.23333,"Iron, IAB-sLM"
18850,Plymouth,14000,Found,1893,41.33333,-86.31667,"Iron, IIIAB"
18882,Prairie Dog Creek,2900,Found,1893,39.63333,-100.5,H3.7
23675,South Bend,2500,Found,1893,41.65,-86.21667,"Pallasite, PMG"
30380,Zabrodje,3000,Fell,1893,55.18333,27.91667,L6
2333,Arlington,8940,Found,1894,44.6,-94.1,"Iron, IIE-an"
5111,Bori,8600,Fell,1894,21.95,78.03333,L6
5254,Canton,7030,Found,1894,34.2,-84.48333,"Iron, IIIAB"
10107,Fisher,17600,Fell,1894,47.81667,-96.85,L6
11885,Hildreth,3060,Found,1894,40.33333,-99.03333,L5
12083,Jerome (Kansas),29600,Found,1894,38.76667,-100.73333,L4
16946,Ness County (1894),82000,Found,1894,38.5,-99.6,L6
23116,Sam's Valley,6920,Found,1894,42.53333,-122.875,"Iron, IIIAB"
23190,Savtschenskoje,2500,Fell,1894,47.21667,29.86667,LL4
2290,Ambapur Nagla,6400,Fell,1895,27.66667,78.25,H5
5060,Bishunpur,1039,Fell,1895,25.38333,82.6,LL3.15
16893,Nagy-Borové,6100,Fell,1895,49.16667,19.5,L5
16987,Nocoleche,20000,Found,1895,-29.86667,144.21667,"Iron, IC-an"
17973,Oakley (stone),27700,Found,1895,38.95,-101.01667,H6
18035,Oscuro Mountains,3600,Found,1895,33.63333,-106.38333,"Iron, IAB-MG"
22552,Reed City,20000,Found,1895,43.86667,-85.51667,"Iron, ungrouped"
22640,Rockhampton,1641,Fell,1895,-23.38333,150.51667,Stone-uncl
2332,Arispe,683000,Found,1896,30.33333,-109.98333,"Iron, IC"
5100,Bolivia,21250,Found,1896,0,0,"Iron, IAB-MG"
5456,Covert,61000,Found,1896,39.2,-98.78333,H5
12772,Lesves,2000,Fell,1896,50.36667,4.73333,L6
14705,Loreto,94800,Found,1896,26.01667,-111.36667,"Iron, IIIAB"
14751,Luis Lopez,7000,Found,1896,34,-106.96667,"Iron, IIIAB"
22765,Rosario,2700,Found,1896,14.6,-88.68333,"Iron, IAB-MG"
10851,Gambat,6400,Fell,1897,27.35,68.53333,L6
12456,Lancon,7000,Fell,1897,43.75,5.11667,H6
14709,Los Reyes,19500,Found,1897,19.26667,-97.28333,"Iron, IIIAB"
16872,Mungindi,51300,Found,1897,-28.93333,148.95,"Iron, IAB-sLM"
23117,San Angelo,88000,Found,1897,31.41667,-100.35,"Iron, IIIAB"
30396,Zavid,95000,Fell,1897,44.4,19.11667,L6
2283,Alt Bela,4000,Found,1898,49.76667,18.25,"Iron, IID"
2295,Andover,3200,Fell,1898,44.61667,-70.75,L6
2335,Armanty,28000000,Found,1898,47,88,"Iron, IIIE"
5016,Bendock,27000,Found,1898,-37.15,148.91667,Pallasite
5304,Cedartown,11300,Found,1898,34.01667,-85.26667,"Iron, IIAB"
12046,Iredell,1500,Found,1898,31.96667,-97.86667,"Iron, IIAB"
12338,Kodaikanal,15900,Found,1898,10.26667,77.4,"Iron, IIE"
15435,Mart,7140,Found,1898,31.5,-96.88333,"Iron, IVA"
22360,Quesa,10750,Fell,1898,39,-0.66667,"Iron, IAB-ung"
23590,Sierra Gorda,26000,Found,1898,-22.9,-69.35,"Iron, IIAB"
24227,Weaver Mountains,38800,Found,1898,34.25,-112.75,"Iron, IVB"
2276,Allegan,32000,Fell,1899,42.53333,-85.88333,H5
5064,Bjurböle,330000,Fell,1899,60.4,25.8,L/LL4
12024,Illinois Gulch,2500,Found,1899,46.68333,-112.55,"Iron, ungrouped"
12324,Kissij,5500,Found,1899,54.86667,50.88333,H5
15386,Magnesia,5000,Fell,1899,37.86667,27.51667,"Iron, IAB-sHL"
16881,Murphy,7700,Found,1899,35.1,-84.03333,"Iron, IIAB"
22550,Red Willow,2750,Found,1899,40.25,-100.5,Iron
23761,Surprise Springs,1500,Found,1899,34.16667,-115.91667,"Iron, IAB-sLL"
30412,Zomba,7500,Fell,1899,-15.18333,35.28333,L6
465,Alexandrovsky,9251,Fell,1900,50.95,31.81667,H4
5107,Boogaldi,2000,Found,1900,-31.15,149.11667,"Iron, IVA"
5303,Cedar (Texas),26000,Found,1900,29.82806,-96.90861,H4
10081,Felix,3200,Fell,1900,32.53333,-87.16667,CO3.3
12249,Kansas University,2800,Found,1900,0,0,L6
12401,La Porte,14540,Found,1900,41.6,-86.71667,"Iron, IIIAB"
16968,N'Goureyma,37500,Fell,1900,13.85,-4.38333,"Iron, ungrouped"
17990,Ofehértó,3750,Fell,1900,47.88333,22.03333,L6
22594,Rhine Villa,3325,Found,1900,-34.66667,139.28333,"Iron, IIIE"
2348,Ashfork,27000,Found,1901,35.25,-112.5,"Iron, IAB-MG"
11873,Hendersonville,6000,Found,1901,35.31667,-81.46667,L5
11989,Hvittis,14000,Fell,1901,61.18333,22.68333,EL6
18808,Phillips County (stone),57900,Fell,1901,40,-99.25,L6
23109,Saline,30800,Found,1901,39.4,-100.4,H5
23611,Sindhri,8400,Fell,1901,26.21667,69.55,H5
4975,Bath Furnace,86000,Fell,1902,38.25,-83.75,L6
5352,Chinautla,5720,Found,1902,14.5,-90.5,"Iron, IVA-an"
5477,Crumlin,4255,Fell,1902,54.61667,-6.21667,L5
10103,Finmarken,78300,Found,1902,70,24,"Pallasite, PMG"
12241,Kamsagar,1293,Fell,1902,14.18333,75.8,L6
15426,Marjalahti,45000,Fell,1902,61.5,30.5,"Pallasite, PMG"
16766,Mount Browne,11300,Fell,1902,-29.8,141.7,H6
24157,Veliko-Nikolaevsky Priisk,24267,Found,1902,53.83333,97.33333,"Iron, IIIAB"
24269,Willamette,15500000,Found,1902,45.36667,-122.58333,"Iron, IIIAB"
5047,Billings,24500,Found,1903,37.06667,-93.55,"Iron, IIIAB"
5497,Cumpas,28600,Found,1903,30,-109.66667,"Iron, IIIAB"
6615,Davis Mountains,689000,Found,1903,30.75,-104.25,"Iron, IIIAB"
7658,Dokachi,3840,Fell,1903,23.5,90.33333,H5
12065,Jackalsfontein,48000,Fell,1903,-32.5,21.9,L6
12248,Kansas City (1903),36000,Found,1903,39.1,-94.63333,H5
12334,Knowles,161000,Found,1903,36.9,-100.21667,"Iron, IIIAB"
12352,Kouga Mountains,1173000,Found,1903,-33.61667,24,"Iron, IIIAB"
12454,Lancaster County,13000,Found,1903,40.66667,-96.75,Iron
16772,Mount Dyrring,11300,Found,1903,-32.33333,151.2,Pallasite
18893,Providence,6804,Found,1903,38.56667,-85.23333,"Iron, IIIAB"
23090,St. Mark's,13780,Fell,1903,-32.01667,27.41667,EH5
23794,Tamarugal,320000,Found,1903,-20.8,-69.66667,"Iron, IIIAB"
23901,Teocaltiche,10000,Found,1903,21.43333,-102.56667,Iron
24013,Tlacotepec,71000,Found,1903,18.65,-97.55,"Iron, IVB"
24096,Uberaba,40000,Fell,1903,-19.81667,-48.78333,H5
24138,Uwet,54000,Found,1903,5.28333,8.25,"Iron, IIAB"
24145,Valdinizza,1004,Fell,1903,44.86667,9.15,L6
30357,Yarroweyah,9600,Found,1903,-35.98333,145.58333,"Iron, IIAB"
4921,Bagnone,48000,Found,1904,44.31667,9.98333,"Iron, IIIAB"
5318,Chambord,6600,Found,1904,48.45,-72.06667,"Iron, IIIAB"
6641,Delegate,27700,Found,1904,-37,149.03333,"Iron, IIIAB-an"
11450,Gumoschnik,5700,Fell,1904,42.9,24.7,H5
14658,Lipovsky,3500,Found,1904,49.08333,42.51667,"Pallasite, PMG"
18000,Okano,4742,Fell,1904,35.08333,135.2,"Iron, IIAB"
18894,Puente del Zacate,30790,Found,1904,27.86667,-101.5,"Iron, IIIAB"
18896,Puerta de Arauco,1533,Found,1904,-28.88333,-66.66667,Iron
23529,Shelburne,18600,Fell,1904,44.05,-80.16667,L5
5041,Bholghati,2500,Fell,1905,22.08333,86.9,Howardite
5436,Coon Butte,2750,Found,1905,35,-111,L6
7813,El Perdido,30250,Found,1905,-38.68333,-61.1,H5
10020,Ellerslie,10200,Found,1905,-28.9,146.76667,L5
10863,Garraf,8800,Found,1905,41.26667,1.91667,L6
12262,Karkh,22000,Fell,1905,27.8,67.16667,L6
12734,Las Salinas,3515,Found,1905,-23,-69.5,"Iron, IIIAB"
16711,Modoc (1905),35000,Fell,1905,38.5,-101.1,L6
23462,Scott City,2135,Found,1905,38.46667,-100.93333,H5
23623,Skookum,16000,Found,1905,63.91667,-139.33333,"Iron, IVB"
5068,Blackwell,2381,Fell,1906,36.83333,-97.33333,L5
7642,Diep River,1000,Fell,1906,-33.75,18.56667,L6
7737,Duchesne,22700,Found,1906,40.38333,-110.86667,"Iron, IVA"
10024,Elm Creek,7000,Found,1906,38.5,-96.2,H4
12373,Kulp,3719,Fell,1906,41.11667,45,H6
15413,Marburg,3000,Found,1906,50.81667,8.76667,Pallasite
16873,Muonionalusta,230000,Found,1906,67.8,23.1,"Iron, IVA"
18795,Perryville,17500,Found,1906,37.73333,-89.85,"Iron, IIC"
23486,Selma,140600,Found,1906,32.4,-87,H4
24187,Vishnupur,2437,Fell,1906,23.1,87.43333,LL4-6
422,Ainsworth,80650,Found,1907,42.6,-99.8,"Iron, IIAB"
4928,Bali,1000,Fell,1907,5.38333,16.38333,CV3
5094,Bodaibo,15900,Found,1907,57.85,114.2,"Iron, IVA"
5315,Chainpur,8200,Fell,1907,25.85,83.48333,LL3.4
5377,Cleburne,6800,Found,1907,32.31667,-97.41667,"Iron, IVA"
11441,Guffey,309000,Found,1907,38.76667,-105.51667,"Iron, ungrouped"
11985,Huizopa,140000,Found,1907,28.9,-108.56667,"Iron, IVA"
16763,Mount Ayliff,13600,Found,1907,-30.81667,29.35,"Iron, IAB-MG"
16993,Norfolk,23000,Found,1907,36.9,-76.3,"Iron, IIIAB"
23581,Shrewsbury,12000,Found,1907,39.76667,-76.66667,"Iron, IAB-sLL"
23604,Simondium,1600,Found,1907,-33.85,18.95,Mesosiderite-A4
2334,Arltunga,18100,Found,1908,-23.33333,134.66667,"Iron, IID-an"
4906,Avce,1230,Fell,1908,46,13.5,"Iron, IIAB"
12227,Kagarlyk,1900,Fell,1908,49.86667,30.83333,L6
12245,Kangean,1630,Fell,1908,-7,115.5,H5
16713,Mokoia,4500,Fell,1908,-39.63333,174.4,CV3
17935,Novy-Projekt,1001,Fell,1908,56,22,OC
18078,Palmersville,9979,Found,1908,36.4665,-88.60283,H5
22364,Quinn Canyon,1450000,Found,1908,38.08333,-115.53333,"Iron, IIIAB"
30356,Yarri,1500,Found,1908,-29.45,121.21667,"Iron, IIIAB"
419,Ahumada,52600,Found,1909,30.7,-105.5,"Pallasite, PMG"
5071,Blanket,5100,Fell,1909,31.83333,-98.83333,L6
10914,Gifu,14290,Fell,1909,35.53333,136.88333,L6
11451,Gun Creek,22700,Found,1909,34,-111,"Iron, ungrouped"
11849,Haskell,36000,Found,1909,33.21333,-99.73167,L5
11877,Hermitage Plains,32000,Found,1909,-31.73333,146.4,L6
16771,Mount Dooling,734000,Found,1909,-29.45,119.71667,"Iron, IC"
16878,Murnpeowie,1143000,Found,1909,-29.58333,139.9,"Iron, IC"
22397,Rateldraai,549000,Found,1909,-28.83333,21.13333,"Iron, IIIAB"
23902,Teplá,17000,Found,1909,49.98333,12.86667,"Iron, IIIAB"
4949,Baroti,4500,Fell,1910,31.61667,76.8,L6
5075,Blithfield,1830,Found,1910,45.5,-77,EL6
5193,Cadell,3290,Found,1910,-34.06667,139.75,L6
7717,Dorofeevka,12600,Found,1910,53.33333,70.06667,"Iron, IIF"
11848,Hashima,1110.6,Fell,1910,35.2945,136.70033,H4
11870,Hedjaz,6100,Fell,1910,27.33333,35.66667,L3.7-6
11988,Huntsman,14500,Found,1910,41.18333,-103,H4
12298,Khohar,9700,Fell,1910,25.1,81.53333,L3.6
16701,Mirzapur,8510,Fell,1910,25.68333,83.25,L5
18869,Pooposo,12000,Found,1910,-18.33333,-66.83333,"Iron, IAB-MG"
22596,Rica Aventura,5395,Found,1910,-21.98333,-69.61667,"Iron, IVA"
23093,St. Michel,17000,Fell,1910,61.65,27.2,L6
23456,Schaap-Kooi,2700,Found,1910,-32.08333,21.33333,H4
23896,Tendo,10100,Found,1910,38.35,140.37333,"Iron, IIIAB"
24174,Vigarano,15000,Fell,1910,44.85,11.4,CV3
5478,Cruz del Aire,23000,Found,1911,26.5,-100,"Iron, ungrouped"
5495,Cullison,10000,Found,1911,37.61667,-98.91667,H4
6649,Demina,16400,Fell,1911,51.46667,84.76667,L6
12283,Kermichel,3000,Found,1911,47.65,-2.76667,L6
16852,Mundrabilla,24000000,Found,1911,-30.78333,127.55,"Iron, IAB-ung"
16898,Nakhla,10000,Fell,1911,31.31667,30.35,Martian (nakhlite)
17975,Oberlin,2500,Found,1911,39.8,-100.51667,LL5
24170,Vicenice,4370,Found,1911,49.21667,15.8,"Iron, IID"
378,Adelie Land,1000,Found,1912,-67.18333,142.38333,L5
5049,Binda,5400,Found,1912,-34.31667,149.38333,Eucrite-cm
5058,Bishop Canyon,8600,Found,1912,38,-108.5,"Iron, IVA"
5404,Colomera,134000,Found,1912,37.43333,-3.65,"Iron, IIE"
10114,Floydada,12500,Found,1912,33.98333,-101.28333,"Iron, IIIAB"
11201,Gretna,82000,Found,1912,39.93333,-99.21667,L5
11894,Holbrook,220000,Fell,1912,34.9,-110.18333,L/LL6
16716,Molong,104000,Found,1912,-33.28333,148.88333,"Pallasite, PMG"
16983,N'Kandhla,17200,Fell,1912,-28.56667,30.7,"Iron, IID"
23583,Shupiyan,5000,Fell,1912,33.71667,74.83333,H6
5170,Burkett,8400,Found,1913,32.03333,-99.25,"Iron, IAB-MG"
5353,Chinga,209400,Found,1913,51.05833,94.4,"Iron, ungrouped"
5431,Cookeville,2300,Found,1913,36.16667,-85.51667,"Iron, IAB-ung"
5494,Culbertson,5900,Found,1913,40.23333,-100.83333,H4
16736,Moore County,1880,Fell,1913,35.41667,-79.38333,Eucrite-cm
16773,Mount Edith,326000,Found,1913,-22.5,116.16667,"Iron, IIIAB"
18061,Owens Valley,192800,Found,1913,37.46667,-118,"Iron, IIIAB"
23103,Sakauchi,4180,Fell,1913,35.66667,136.3,Iron
24153,Varpaisjärvi,2000,Found,1913,63.3,27.73333,L6
2318,Appley Bridge,15000,Fell,1914,53.58333,-2.71667,LL6
2341,Artracoona,20810,Found,1914,-29.06667,139.91667,L6
5281,Carraweena,31600,Found,1914,-29.23333,139.93333,L3.9
5466,Cratheús (1931),27500,Found,1914,-5.25,-40.5,"Iron, IVA"
12259,Karee Kloof,92100,Found,1914,-31.6,25.8,"Iron, IAB-sLL"
12325,Kisvarsány,1550,Fell,1914,48.16667,22.30833,L6
12345,Kopjes Vlei,13600,Found,1914,-29.3,21.15,"Iron, IIAB"
12384,Kuttippuram,45000,Fell,1914,10.83333,76.03333,L6
14760,Lushton,6700,Found,1914,40.74972,-97.74972,L6
16741,Morasko,290000,Found,1914,52.46667,16.9,"Iron, IAB-MG"
17970,Nyirábrany,1100,Fell,1914,47.55,22.025,LL5
18077,Palinshih,18000,Fell,1914,43.48333,118.61667,Iron
22791,Ryechki,13000,Fell,1914,51.13333,34.5,L5
23101,Saint-Sauveur,14000,Fell,1914,43.73333,1.38333,EH5
24276,Willow Creek,51000,Found,1914,43.46667,-106.76667,"Iron, IIIE"
30347,Yandama,5800,Found,1914,-29.75,141.03333,L6
30375,Ysleta,140700,Found,1914,31.65,-106.18333,"Iron, ungrouped"
455,Albin (pallasite),37600,Found,1915,41.5,-104.1,"Pallasite, PMG"
10920,Gladstone (iron),736600,Found,1915,-23.9,151.3,"Iron, IAB-MG"
12023,Ilinskaya Stanitza,5621,Found,1915,51.23333,57.38333,"Iron, IIIAB"
15470,Meester-Cornelis,24750,Fell,1915,-6.23333,106.88333,H5
16913,Naretha,5500,Found,1915,-31,124.83333,L4
22767,Rosebud,54900,Found,1915,30.81667,-97.05,H5
23676,South Byron,6000,Found,1915,43.03333,-78.03333,"Iron, ungrouped"
24137,Uvalde,8200,Found,1915,29.2,-99.76667,H5
24198,Waingaromia,9200,Found,1915,-38.25,178.08333,"Iron, IIIAB"
2300,Angelica,14800,Found,1916,44.25,-88.25,"Iron, IIIAB"
2306,Annaheim,13500,Found,1916,52.33333,-104.86667,"Iron, IAB-sLL"
5098,Boguslavka,256000,Fell,1916,44.55,131.63333,"Iron, IIAB"
5189,Cachari,23500,Found,1916,-36.4,-59.5,Eucrite-mmict
5200,Calivo,2400,Fell,1916,11.75,122.33333,Stone-uncl
14712,Lost Creek,4018,Found,1916,39.12417,-98.16778,H3.8
16780,Mount Magnet,16600,Found,1916,-28.16667,118.5,"Iron, IAB-sHH"
18001,Okechobee,1000,Found,1916,26.68333,-80.8,L4
18802,Petropavlovka,1773,Found,1916,48.2,43.73333,H4
23606,Sinai,1455,Fell,1916,30.9,32.48333,L6
23624,Slaghek's Iron,1900,Found,1916,0,0,"Iron, IIIAB"
23741,Sultanpur,1710.5,Fell,1916,25.93333,84.28333,L/LL6
24050,Treysa,63000,Fell,1916,50.91667,9.18333,"Iron, IIIAB-an"
5088,Bluff (b),16000,Found,1917,29.86306,-96.92667,L4
5395,Colby (Wisconsin),104000,Fell,1917,44.9,-90.28333,L6
5465,Cranganore,1460,Fell,1917,10.2,76.26667,L6
16903,Nan Yang Pao,52900,Fell,1917,35.66667,103.5,L6
16951,New Almelo,8000,Found,1917,39.66667,-100,L5
18784,Pei Xian,400000,Found,1917,34.7,117,Iron
18819,Pierceville (iron),100000,Found,1917,37.86667,-100.66667,"Iron, IIIAB"
18841,Plainview (1917),700000,Found,1917,34.11667,-101.78333,H5
23729,Strathmore,13400,Fell,1917,56.58333,-3.25,L6
24054,Troup,1020,Fell,1917,32.16667,-95.1,L6
24066,Tulia (a),86000,Found,1917,34.61667,-101.95,H3-4
24067,Tulia (b),4800,Found,1917,34.53333,-101.7,L6
24219,Waterville,37125,Found,1917,47.767778,-119.876389,"Iron, IAB-ung"
30373,Youanmi,118400,Found,1917,-29.5,118.75,"Iron, IIIAB"
4940,Barbacena,9026,Found,1918,-21.21667,-43.93333,"Iron, ungrouped"
10926,Glasatovo,152000,Fell,1918,57.35,37.61667,H4
12311,Kimble County,153800,Found,1918,30.41667,-99.4,H6
14677,Logan,1315,Found,1918,36.58333,-100.2,H5
16994,Norfork,1050,Fell,1918,36.21667,-92.26667,"Iron, IIIAB"
17992,Ogallala,3300,Found,1918,41.16667,-101.66667,"Iron, IAB-sLL"
22599,Richardton,90000,Fell,1918,46.88333,-102.31667,H5
23176,Saratov,200000,Fell,1918,52.55,46.55,L4
24332,Wood's Mountain,3867,Found,1918,35.68333,-82.18333,"Iron, IVA"
30361,Yenberrie,132000,Found,1918,-14.25,132.01667,"Iron, IAB-MG"
379,Adhi Kot,4239,Fell,1919,32.1,71.8,EH4
2310,Anthony,20000,Found,1919,37.08333,-98.05,H5
5169,Bur-Gheluai,120000,Fell,1919,5,48,H5
5496,Cumberland Falls,17000,Fell,1919,36.83333,-84.35,Aubrite
12437,Lake Brown,23400,Found,1919,-31,118.5,L6
18041,Otchinjau,30000,Found,1919,-16.5,14,"Iron, IVA"
22394,Raoyang,4910,Fell,1919,38.2,115.7,L6
22585,Rembang,10000,Fell,1919,-6.73333,111.36667,"Iron, IVA"
23592,Signal Mountain,63500,Found,1919,32.5,-115.5,"Iron, IVA"
23665,Somervell County,11800,Found,1919,32.18333,-97.8,"Pallasite, PMG"
30383,Zaffra,3000,Found,1919,35,-94.75,"Iron, IAB-MG"
417,Aguila Blanca,1440,Fell,1920,-30.86667,-64.55,L
4883,Atarra,1280,Fell,1920,25.25417,80.625,L4
5354,Chinguetti,4050,Found,1920,20.25,-12.68333,Mesosiderite-B1
11890,Hoba,60000000,Found,1920,-19.58333,17.91667,"Iron, IVB"
12381,Kushiike,4460,Fell,1920,37.05,138.38333,OC
15452,Mayodan,15400,Found,1920,36.38333,-79.86667,"Iron, IIAB"
15492,Merua,71400,Fell,1920,25.48333,81.98333,H5
16749,Morrill,1387,Found,1920,42.18333,-103.93333,"Iron, IAB-an"
23124,San Francisco Mountains,1700,Found,1920,35,-112,"Iron, IVA"
23603,Simmern,1222,Fell,1920,49.98333,7.53333,H5
24124,Unter-Mässing,80000,Found,1920,49.09028,11.33333,"Iron, IIC"
24319,Witchelina,3637,Found,1920,-30,138,H4
24341,Wu-chu-mu-ch'in,68860,Found,1920,45.5,118,"Iron, IAB-ung"
5035,Beyrout,1100,Fell,1921,33.88333,35.5,LL3.8
7815,El Qoseir,2405,Found,1921,26.28333,34.25,"Iron, ungrouped"
10178,Franklin,9062,Found,1921,36.71667,-86.56667,H5
16688,Milly Milly,26500,Found,1921,-26.11667,116.66667,"Iron, IIIAB"
16926,Navajo,2184000,Found,1921,35.33333,-109.5,"Iron, IIAB"
18837,Pitts,3760,Fell,1921,31.95,-83.51667,"Iron, IAB-ung"
22766,Rose City,10600,Fell,1921,44.51667,-83.95,H5
23115,Samelia,2462,Fell,1921,25.66667,74.86667,"Iron, IIIAB"
23166,Santa Luzia,1918000,Found,1921,-16.26667,-47.95,"Iron, IIAB"
23525,Sharps,1265,Fell,1921,37.83333,-76.7,H3.4
23534,Shikarpur,3679.7,Fell,1921,25.85,87.5775,L6
24060,Tuan Tuc,13100,Fell,1921,9.66667,105.66667,L6
24105,Uegit,252000,Found,1921,3.81667,43.33333,"Iron, IIIAB"
24141,Vaalbult,11800,Found,1921,-29.75,22.5,"Iron, IAB-MG"
7747,Dungannon,13000,Found,1922,36.85,-82.45,"Iron, IAB-MG"
10027,Elsinora,1797,Found,1922,-29.45,143.6,H5
10111,Florence,3640,Fell,1922,30.83333,-97.76667,H3
10927,Glasgow,20400,Found,1922,37.01667,-85.91667,"Iron, IIIAB"
11869,Hedeskoga,3500,Fell,1922,55.46667,13.78333,H5
15494,Mesa Verde Park,3500,Found,1922,37.16667,-108.5,"Iron, IAB-ung"
16743,Morden,2426,Found,1922,-30.5,142.33333,"Iron, IAB?"
16890,Nagai,1810,Fell,1922,38.12167,140.06167,L6
16952,New Baltimore,20000,Found,1922,40,-78.85,"Iron, ungrouped"
17985,Odessa (iron),1600000,Found,1922,31.71667,-102.4,"Iron, IAB-MG"
18817,Piedade do Bagre,59000,Found,1922,-18.94167,-44.98333,"Iron, ungrouped"
23987,Tieraco Creek,41700,Found,1922,-26.33333,118.33333,"Iron, IIIAB"
24012,Tjerebon,16500,Fell,1922,-6.66667,106.58333,L5
2277,Allen,1407,Found,1923,33.1,-96.7,H4
2346,Ashdon,1300,Fell,1923,52.05,0.3,L6
5266,Carbo,454000,Found,1923,29.66667,-111.5,"Iron, IID"
5398,Coldwater (iron),18400,Found,1923,37.26667,-99.33333,Iron
5506,Dalgaranga,12200,Found,1923,-27.71667,117.25,Mesosiderite-A
10945,Goodland,3628,Found,1923,39.35,-101.66667,L4
11895,Holetta,1415,Fell,1923,9.06667,38.41667,Stone-uncl
16727,Montferré,149000,Fell,1923,43.39056,1.9625,H5
16899,Nakhon Pathom,23200,Fell,1923,13.73333,100.08333,L6
16962,Newport,5600,Found,1923,35.6,-91.26667,"Pallasite, PMG"
23189,Savannah,60000,Found,1923,35.16667,-88.18333,"Iron, IIIAB"
23499,Seneca Township,11500,Found,1923,41.78333,-84.18333,"Iron, IVA"
23502,Serra de Magé,1800,Fell,1923,-8.38333,-36.76667,Eucrite-cm
23591,Sierra Sandon,6330,Found,1923,-25.16667,-69.28333,"Iron, IIIAB"
24333,Woodward County,45500,Found,1923,36.5,-99.5,H4
369,Achilles,16000,Found,1924,39.77667,-100.81333,H5
4994,Beeler,11620,Found,1924,38.53333,-100.21667,LL6
5028,Béréba,18000,Fell,1924,11.65,-3.65,Eucrite-mmict
5399,Coldwater (stone),16000,Found,1924,37.26667,-99.33333,H5
6665,Dermbach,1500,Found,1924,50.71667,10.11667,"Iron, ungrouped"
10123,Forksville,6067,Fell,1924,36.78333,-78.08333,L6
10172,Four Corners,25000,Found,1924,37,-109.05,"Iron, IAB-ung"
11922,Huckitta,2300000,Found,1924,-22.36667,135.76667,"Pallasite, PMG-an"
12198,Johnstown,40300,Fell,1924,40.35,-104.9,Diogenite
12395,La Colina,2000,Fell,1924,-37.33333,-61.53333,H5
12444,Lake Labyrinth,25850,Found,1924,-30.53333,134.75,LL6
16874,Muraid,4703,Fell,1924,24.5,90.21667,L6
18013,Olivenza,150000,Fell,1924,38.71667,-7.06667,LL5
23165,Santa Isabel,5500,Fell,1924,-33.9,-61.7,L6
23736,Success,3500,Fell,1924,36.48333,-90.66667,L6
24123,Unkoku,1000,Fell,1924,34.8,127,OC
24230,Weekeroo Station,94200,Found,1924,-32.26667,139.86667,"Iron, IIE-an"
424,Aïr,24000,Fell,1925,19.08333,8.38333,L6
5334,Chaves,2945,Fell,1925,41.93333,-7.46667,Howardite
10019,Ellemeet,1470,Fell,1925,51.75,4,Diogenite
10933,Glenormiston,40800,Found,1925,-22.9,138.71667,"Iron, ungrouped"
12465,Lanzenkirchen,7000,Fell,1925,47.75,16.23333,L4
16754,Morven,7100,Found,1925,-44.81667,171.13333,H4/5
18021,Opava,14300,Found,1925,49.96667,17.9,Iron
18113,Patos de Minas (hexahedrite),32000,Found,1925,-18.58333,-46.53333,"Iron, IIAB"
18114,Patos de Minas (octahedrite),200000,Found,1925,-18.58333,-46.53333,"Iron, IAB complex"
22357,Queen's Mercy,7000,Fell,1925,-30.11667,28.7,H6
23156,Sandia Mountains,45000,Found,1925,35.25,-106.5,"Iron, IIAB"
6662,Deport,15000,Found,1926,33.51667,-95.3,"Iron, IAB-sLL"
14721,Lua,9241,Fell,1926,24.95,75.15,L5
17972,Oakley (iron),111000,Found,1926,42.33333,-113.7,"Iron, IIIF"
17997,Ojuelos Altos,5850,Fell,1926,38.18333,-5.4,L6
17999,Okahandja,6580,Found,1926,-21.98333,16.93333,"Iron, IIAB"
18182,Peck's Spring,1600,Found,1926,32,-102,L5
24129,Urasaki,1500,Fell,1926,34.48333,133.28333,Stone-uncl
24226,Weatherford,2000,Found,1926,35.5,-98.7,CBa
4930,Ballinger,1250,Found,1927,31.76667,-99.98333,"Iron, IAB-MG"
7651,Dix,44000,Found,1927,41.23333,-103.48333,L6
11887,Hinojal,50000,Found,1927,-32.36667,-60.15,L6
11984,Hugoton,350000,Found,1927,37.2,-101.35,H5
15401,Mamra Springs,1000,Fell,1927,45.21667,62.08333,L6
17988,Oesede,1400,Fell,1927,52.28333,8.05,H5
18827,Pinnaroo,39400,Found,1927,-35.38333,140.91667,Mesosiderite-A4
23659,Social Circle,99300,Found,1927,33.7,-83.7,"Iron, IVA"
23998,Tilden,74800,Fell,1927,38.2,-89.68333,L6
24101,Udei Station,103000,Fell,1927,7.95,8.08333,"Iron, IAB-ung"
24110,Ulysses,3900,Found,1927,37.6,-101.25,H4
24206,Wallapai,430000,Found,1927,35.8,-113.7,"Iron, IID"
24217,Washington County,5750,Found,1927,39.7,-103.16667,"Iron, ungrouped"
375,Adams County,5700,Found,1928,39.96667,-103.76667,H5
5454,Cotesfield,1160,Found,1928,41.36667,-98.63333,L6
11888,Hinojo,1155,Found,1928,-36.86667,-60.16667,H
12053,Isthilart,3050,Fell,1928,-31.18333,-57.95,H5
16908,Naoki,17000,Fell,1928,19.25,77,H6
18029,Orlovka,40500,Found,1928,56,76.75,H5
18828,Piñon,17850,Found,1928,32.66667,-105.1,"Iron, ungrouped"
23787,Taicang,20000,Found,1928,31.5,121.08333,Stone-uncl
24136,Utzenstorf,3422,Fell,1928,47.11667,7.55,H5
24285,Winona,24000,Found,1928,35.2,-111.4,Winonaite
30368,York (stone),1440,Found,1928,40.86667,-97.6,L6
4925,Bald Mountain,3700,Fell,1929,35.96667,-82.48333,L4
4984,Beardsley,16000,Fell,1929,39.8,-101.2,H5
5245,Campbellsville,15400,Found,1929,37.36667,-85.36667,"Iron, IIIAB"
5350,Chihuahua City,54000,Found,1929,28.66667,-106.11667,"Iron, IC"
10957,Grant,525000,Found,1929,35.16667,-107.88333,"Iron, IIIAB"
12297,Khmelevka,6109,Fell,1929,56.75,75.33333,L5
12365,Krzadka,2500,Found,1929,50.375,21.73333,Iron
15473,Mellenbye,1181.6,Found,1929,-28.85,116.28333,LL6
18015,Olmedilla de Alarcón,40000,Fell,1929,39.56667,-2.1,H5
18066,Ozona,127500,Found,1929,30.73333,-101.3,H6
18069,Padvarninkai,3858,Fell,1929,55.66667,25,Eucrite-mmict
22593,Rewari,3332,Fell,1929,28.2,76.66667,L6
23887,Tauk,6000,Fell,1929,35.13333,44.45,L6
398,Aguada,1620,Fell,1930,-31.6,-65.23333,L6
5014,Bencubbin,118000,Found,1930,-30.75,117.78333,CBa
5112,Boriskino,1342,Fell,1930,54.23333,52.48333,CM2
5115,Borrego,2126,Found,1930,33.26667,-116.38333,L6
11467,Gyokukei,1320,Fell,1930,35,127.5,OC
12264,Karoonda,41730,Fell,1930,-35.08333,139.91667,CK4
12457,Landes,69800,Found,1930,38.9,-79.18333,"Iron, IAB-MG"
14650,Lillaverke,6862,Fell,1930,56.65,15.86667,H5
15456,Mbosi,16000000,Found,1930,-9.11667,33.06667,"Iron, ungrouped"
16630,Miami,57700,Found,1930,35.66667,-100.6,H5
16645,Miller (Arkansas),16700,Fell,1930,35.4,-92.05,H5
16738,Moorleah,8887.5,Fell,1930,-40.975,145.6,L6
18009,Oldenburg (1930),16570,Fell,1930,52.95,8.16667,L6
18101,Paragould,408000,Fell,1930,36.06667,-90.5,LL5
18846,Plantersville,2085,Fell,1930,30.7,-96.11667,H6
23893,Tell,16600,Found,1930,34.38333,-100.4,H6
24139,Uwharrie,72700,Found,1930,35.51667,-79.96667,"Iron, IIIAB"
471,Alikatnima,20000,Found,1931,-23.33333,134.11667,"Iron, ungrouped"
4983,Bear Lodge,48500,Found,1931,44.5,-104.2,"Iron, IIIAB"
5158,Bruno,13000,Found,1931,52.26667,-105.35,"Iron, IIAB"
5371,Clareton,1050,Found,1931,43.7,-104.7,L6
11872,Henbury,2000000,Found,1931,-24.56667,133.16667,"Iron, IIIAB"
12040,Ioka,31500,Found,1931,40.25,-110.08333,L3.5
12458,Landor,9000,Found,1931,-25.66667,117,Iron
18037,Osseo,46300,Found,1931,47.63333,-80.08333,"Iron, IAB complex"
18826,Pine River,3600,Found,1931,44.21667,-89.1,"Iron, IAB-sLL"
23692,Springwater,67600,Found,1931,52,-108.3,"Pallasite, PMG-an"
23884,Tatahouine,12000,Fell,1931,32.95,10.41667,Diogenite
30377,Yukan,4800,Fell,1931,28.71667,116.61667,LL6
2286,Altonah,21500,Found,1932,40.56667,-110.48333,"Iron, IVA"
2329,Archie,5070,Fell,1932,38.5,-94.3,H6
4939,Baquedano,22000,Found,1932,-23.3,-69.88333,"Iron, IIIAB"
5095,Boerne,1100,Found,1932,29.8,-98.8,H6
5457,Cowell,5717,Found,1932,-33.3,136.01667,"Iron, IIIAB"
6636,Deelfontein,28000,Found,1932,-30.18333,23.26667,"Iron, IAB-MG"
7723,Douar Mghila,1161,Fell,1932,32.33333,-6.3,LL6
11432,Gualeguaychú,22000,Fell,1932,-33,-58.61667,H6
11434,Guanghua,190000,Found,1932,32.4,111.7,"Iron, IVA"
12289,Khanpur,3698,Fell,1932,25.55,83.11667,LL5
12299,Khor Temiki,3200,Fell,1932,16,36,Aubrite
12385,Kuznetzovo,4047,Fell,1932,55.2,75.33333,L6
12386,Kyancutta,32700,Found,1932,-33.28333,136,"Iron, IIIAB"
12463,Lanton,13780,Found,1932,36.53333,-91.8,"Iron, IIIAB"
16992,Nordheim,15150,Found,1932,28.86667,-97.61667,"Iron, ungrouped"
18883,Prambachkirchen,2125,Fell,1932,48.3025,13.94083,L6
24196,Wagon Mound,87500,Found,1932,35.84083,-104.58583,L6
5179,Bushman Land,3000,Found,1933,-30,20,"Iron, IVA"
5316,Chajari,18300,Fell,1933,-30.78333,-58.05,L5
5340,Cherokee Springs,8400,Fell,1933,35.03333,-81.88333,LL6
10951,Grady (1933),4230,Found,1933,34.8,-103.31667,L3-6
11844,Harrisonville,46500,Found,1933,38.65,-94.33333,L6
11891,Hobbs,2300,Found,1933,32.73333,-103.1,H4
11892,Hobbs (b),1600,Found,1933,32.73333,-103.1,H5
11900,Holyoke,11200,Found,1933,40.56667,-102.3,H4
12400,La Lande,30000,Found,1933,34.45,-104.13333,L5
12446,Lake Murray,270000,Found,1933,34.1,-97,"Iron, IIAB"
14698,Loomis,3020,Found,1933,40.46667,-99.5,L6
15434,Marsland,6850,Found,1933,42.45,-103.3,H5
15475,Melrose (a),36400,Found,1933,34.38333,-103.61667,L5
18110,Pasamonte,5100,Fell,1933,36.21667,-103.4,Eucrite-pmict
18798,Pervomaisky,66000,Fell,1933,56.63333,39.43333,L6
18799,Pesyanoe,3393,Fell,1933,55.5,66.08333,Aubrite
18811,Phum Sambo,7800,Fell,1933,12,105.48333,H4
22590,Repeev Khutor,7000,Fell,1933,48.6,45.66667,"Iron, IIF"
22774,Roy (1933),47200,Found,1933,35.95,-104.2,L5
23513,Shafter Lake,3027,Found,1933,32.4,-102.58333,H5
23614,Sioux County,4100,Fell,1933,42.58333,-103.66667,Eucrite-mmict
30399,Zemaitkiemis,44100,Fell,1933,55.3,25,L6
2291,Amber,4532,Found,1934,35.16667,-97.88333,L6
4922,Bahjoi,10322,Fell,1934,28.48333,78.5,"Iron, IAB-sLL"
5022,Bennett County,89000,Found,1934,43.5,-101.25,"Iron, IIAB"
5440,Cope,12000,Found,1934,39.66667,-102.83333,H5
10075,Farmville,56000,Fell,1934,35.55,-77.53333,H4
10079,Fayetteville,2360,Fell,1934,36.05,-94.16667,H4
10932,Glen Rose (iron),11000,Found,1934,32.25,-97.71667,"Iron, ungrouped"
11428,Gruver,13100,Found,1934,36.33333,-101.4,H4
11472,Hainaut,9000,Fell,1934,50.31667,3.73333,H3-6
12269,Kearney,10000,Found,1934,40.68333,-99.06667,H5
15405,Mangwendi,22300,Fell,1934,-17.65,31.6,LL6
16920,Nashville (iron),18000,Found,1934,35.96667,-77.96667,Iron
18099,Para de Minas,116300,Found,1934,-19.86667,-44.61667,"Iron, IVA"
18105,Park City,12300,Found,1934,0,0,"Iron, IIAB"
22611,Rio Negro,1310,Fell,1934,-26.1,-49.8,L4
22768,Round Top (a),9935,Found,1934,30.05806,-96.65139,L5
22775,Roy (1934),5619,Found,1934,35.95,-104.2,L6
23687,Spearman,10400,Found,1934,36.25,-101.21667,"Iron, IIIAB"
23785,Taiban,25000,Found,1934,34.45,-104.01667,L5
24056,Tryon,15900,Found,1934,41.55,-100.96667,L6
24234,Weldona,27700,Found,1934,40.35,-103.95,H4
24271,Willard (b),12700,Found,1934,34.5,-105.83333,H3.6
5284,Carver,94000,Found,1935,32,-86,"Iron, IIAB"
11850,Hasparos,12880,Found,1935,34,-105.5,"Iron, IAB-MG"
14718,Łowicz,59000,Fell,1935,52,19.91667,Mesosiderite-A3
15417,Maria Elena (1935),15500,Found,1935,-22.33333,-69.66667,"Iron, IVA"
15457,McAddo,1100,Found,1935,33.75,-100.93333,L6
16976,Nikolaevka,3996,Fell,1935,52.45,78.63333,H4
17941,Nullarbor 001,40000,Found,1935,-31,132,H5
18081,Paloduro,3000,Found,1935,34.9,-101.21667,"Iron, IIIE"
18171,Patwar,37350,Fell,1935,23.15,91.18333,Mesosiderite-A1
18793,Perpeti,23474,Fell,1935,23.325,91,L6
18807,Phillips County (pallasite),1360,Found,1935,40.45,-102.38333,"Pallasite, PMG-an"
18824,Pine Bluffs,2700,Found,1935,41.18333,-104.06667,H
18848,Pleasanton,2300,Found,1935,38.18333,-94.71667,H5
18910,Quartz Mountain,4832,Found,1935,37.2,-116.7,"Iron, IIIAB"
388,Adrian,22600,Found,1936,35.15,-102.71667,H4
2339,Arriba,31100,Found,1936,39.3,-103.25,L5
5287,Cashion,5896.8,Found,1936,35.84778,-97.70333,H4
5324,Channing,15300,Found,1936,35.71667,-102.28333,H5
5493,Cuero,46500,Found,1936,29.01667,-97.28333,H5
10029,Elton,1900,Found,1936,33.71667,-100.83333,"Iron, ungrouped"
10073,Farley,19400,Found,1936,36.33333,-104.05,H5
10921,Gladstone (stone),57300,Found,1936,36.3,-104,H4
10958,Grant County,2300,Found,1936,37.46667,-101.43333,L6
11995,Ichkala,3973,Fell,1936,58.2,82.93333,H6
12265,Karval,1104,Found,1936,38.71667,-103.51667,H5
14668,Livingston (Montana),1600,Found,1936,45.6,-110.58333,"Iron, IIIAB"
15372,Macibini,1995,Fell,1936,-28.83333,31.95,Eucrite-pmict
15428,Marlow,68000,Found,1936,34.6,-97.91667,L5
16939,Negrillos,28500,Found,1936,-19.88333,-69.83333,"Iron, IIAB"
16955,New Leipzig,20000,Found,1936,46.36667,-101.95,"Iron, IAB-MG"
18048,Ouallen,5174,Found,1936,24.16667,0.08333,H6
18810,Phulmari,4064,Found,1936,20.13333,75.5,Stone-uncl
23135,Sanderson,6800,Found,1936,30.13333,-102.15,"Iron, IIIAB"
23497,Seneca,1900,Found,1936,39.83333,-96.06667,H4
23522,Shallowater,4650,Found,1936,33.7,-101.93333,Aubrite
24134,Ute Creek,1000,Found,1936,36.2,-103.9,H4
30378,Yurtuk,1472,Fell,1936,47.31667,35.36667,Howardite
450,Alamosa,1800,Found,1937,37.46667,-105.86667,L6
2326,Arcadia,19400,Found,1937,41.41667,-99.1,LL6
4995,Beenham,44400,Found,1937,36.21667,-103.65,L5
5126,Boxhole,500000,Found,1937,-22.61667,135.2,"Iron, IIIAB"
5143,Bristol,20000,Found,1937,36.56667,-82.18333,"Iron, IVA"
5145,Broken Bow,6800,Found,1937,41.43333,-99.7,H4
5151,Brownfield (1937),40960,Found,1937,33.21667,-102.18333,H3.7
5288,Casilda,5250,Found,1937,-33.1,-61.13333,H5
5302,Cedar (Kansas),4900,Found,1937,39.7,-98.98333,H6
5373,Clark County,11300,Found,1937,38,-84.16667,"Iron, IIIF"
5434,Coolidge,4500,Found,1937,38.03333,-101.98333,C4-ung
10048,Erofeevka,1771.9,Found,1937,51.86667,70.35,H4
10076,Farnum,4200,Found,1937,40.25,-100.23333,L5
10089,Ferguson Switch,1700,Found,1937,34,-101.5,H5
10952,Grady (1937),9300,Found,1937,34.8,-103.31667,H3.7
11452,Gundaring,112500,Found,1937,-33.3,117.66667,"Iron, IIIAB"
11828,Hardwick,7800,Found,1937,43.8,-96.16667,L4
11860,Haviland (a),1035,Found,1937,37.61667,-99.1,H5
12197,Johnson City,10400,Found,1937,37.55,-101.68333,L6
12217,Kaalijarv,2250,Found,1937,58.4,22.66667,"Iron, IAB-MG"
12229,Kainsaz,200000,Fell,1937,55.43333,53.25,CO3.2
12253,Kaptal-Aryk,3500,Fell,1937,42.45,73.36667,L6
12273,Kelly,44300,Found,1937,40.46667,-103.03333,LL4
12375,Kumerina,53500,Found,1937,-24.91667,119.41667,"Iron, IIC"
12410,Ladder Creek,35100,Found,1937,38.61667,-101.63333,L6
12448,Laketon,3600,Found,1937,35.56667,-100.66667,L6
14654,Lincoln County,4500,Found,1937,39.36667,-103.16667,L6
14710,Los Sauces,997000,Found,1937,-29.41667,-66.85,Iron
16819,Mrirt,79900,Found,1937,33.13333,-5.56667,Iron
17931,Novorybinskoe,3055,Found,1937,51.88333,71.25,"Iron, IVA"
18783,Peetz,11500,Found,1937,40.95,-103.08333,L6
18905,Putinga,300000,Fell,1937,-29.03333,-53.05,L6
22392,Rangala,3224.5,Fell,1937,25.38333,72.01667,L6
23468,Scurry,118000,Found,1937,32.5,-101,H5
23526,Shaw,17500,Found,1937,39.53333,-103.33333,L6/7
23649,Smith Center,1585,Found,1937,39.83333,-99.01667,L6
23689,Springfield,3200,Found,1937,37.38333,-102.63333,L6
23888,Tauti,21000,Fell,1937,46.71667,23.5,L6
23906,Texline,26200,Found,1937,36.4,-103.01667,H5
24202,Waldo,1300,Found,1937,39.1,-98.83333,L6
24329,Wonyulgunna,37800,Found,1937,-24.91667,120.06667,"Iron, IIIAB"
30743,Little Spring Creek,2950,Found,1937,37.68333,-105.7,H5
397,Agua Blanca,49000,Found,1938,-28.91667,-66.95,"Iron, IIIAB"
449,Alamogordo,13600,Found,1938,32.9,-105.93333,H5
4886,Atlanta,5500,Found,1938,31.8,-92.75,EL6
4901,Aurora,1000,Found,1938,36.33333,-105.05,H4
4913,Aztec,2830,Fell,1938,36.8,-108,L6
4953,Bartlett,8590,Found,1938,30.83333,-97.5,"Iron, IIIAB"
5021,Benld,1770.5,Fell,1938,39.08333,-89.15,H6
5104,Bonita Springs,41800,Found,1938,26.26667,-81.75,H5
5198,Calico Rock,7275,Found,1938,36.08333,-92.15,"Iron, IIAB"
5300,Cavour,26210,Found,1938,44.221494,-98.059192,H6
5335,Chebankol,127760,Found,1938,53.66667,88,"Iron, IAB-sHL"
7818,El Simbolar,40000,Found,1938,-30.63333,-64.88333,Iron
10862,Garnett,4788,Found,1938,38.26667,-95.25,H4
10947,Goose Lake,1169500,Found,1938,41.98,-120.54167,"Iron, IAB-sLL"
11841,Harriman (Om),13000,Found,1938,35.95,-84.56667,"Iron, IIIAB"
11914,Howe,8630,Found,1938,33.5,-96.6,H5
12205,Juarez,6100,Found,1938,-37.55,-60.15,L6
12368,Kukschin,2250,Fell,1938,51.15,31.7,L6
14722,Lubbock,1457.8,Found,1938,33.6,-101.73333,L5
16625,Metsäkylä,1200,Found,1938,60.65,27.06667,H4
16718,Monahans (1938),27900,Found,1938,31.48333,-102.88333,"Iron, IIF"
18098,Pantar,2130,Fell,1938,8.06667,124.28333,H5
22393,Ransom,15000,Found,1938,38.61667,-99.93333,H4
22651,Romero,17200,Found,1938,35.76667,-102.95,H4
22786,Rush Creek,9300,Found,1938,38.61667,-102.71667,L6
23157,Sandtown,9350,Found,1938,35.93333,-91.63333,"Iron, IIIAB"
23601,Silverton (Texas),2576,Found,1938,34.53333,-101.18333,H4
23669,Soper,3700,Found,1938,34.03333,-95.58333,"Iron, ungrouped"
23674,South African Railways,47000,Found,1938,0,0,"Iron, IVA"
23886,Tatum,1787,Found,1938,33.23333,-103.44167,H4
24268,Wiley,3500,Found,1938,38.15,-102.66667,"Iron, IIC"
24339,Wray (b),3884,Found,1938,40.33083,-102.19583,L5
30407,Zhovtnevyi,107000,Fell,1938,47.58333,37.25,H6
45813,Mukinbudin,8200,Found,1938,-30.91667,118.2,H5
2298,Andura,17900,Fell,1939,20.88333,76.86667,H6
5101,Bolshaya Korta,1593,Found,1939,57.63333,83.36667,H5
5180,Bushnell,1240,Found,1939,41.23333,-103.9,H4
5342,Chervony Kut,1700,Fell,1939,50.83333,34,Eucrite-mmict
5417,Concho,93500,Found,1939,32,-101.5,L6
5435,Coomandook,5230,Found,1939,-35.41667,139.75,H6
7731,Dresden (Ontario),47700,Fell,1939,42.52,-82.26,H6
7770,Edmonton (Canada),7340,Found,1939,53.66667,-113.41667,"Iron, IIAB"
7776,Ekeby,3336,Fell,1939,56.03333,13,H4
7793,El Burro,35900,Found,1939,29.33333,-101.83333,"Iron, IIAB"
10924,Glanggang,1303,Fell,1939,-7.25,107.7,H5-6
11853,Hat Creek,8900,Found,1939,42.91667,-104.41667,H4
12030,Indianola,4000,Found,1939,40.23333,-100.41667,L5
12275,Kendleton,6937,Fell,1939,29.45,-96,L4
12287,Keyes,142000,Found,1939,36.71667,-102.5,L6
15410,Mapleton,49000,Found,1939,42.18333,-95.71667,"Iron, IIIAB"
15464,McLean,4300,Found,1939,35.23333,-100.6,H6
16921,Nashville (stone),25000,Found,1939,37.45,-98.41667,L6
18057,Ovid,6169,Found,1939,40.96667,-102.4,H6
18820,Pierceville (stone),2125,Found,1939,37.86667,-100.66667,L6
22769,Round Top (b),7166,Found,1939,30.06667,-96.7,H4
23481,Selakopi,1590,Fell,1939,-7.23333,107.33333,H5
23596,Silver Bell,5100,Found,1939,32.48333,-111.56667,"Iron, IIAB"
23889,Tawallah Valley,75750,Found,1939,-15.7,135.66667,"Iron, IVB"
430,Akron (1940),1050,Found,1940,40.15,-103.16667,H6
2323,Arapahoe,19083,Found,1940,38.8,-102.2,L5
4985,Beaver,25628,Found,1940,36.8,-100.53333,L5
5040,Bhola,1047,Fell,1940,22.68333,90.65,LL3-6
5137,Brewster,17000,Found,1940,39.25,-101.33333,L6
5142,Briscoe,1773,Found,1940,34.35,-101.4,L5
5167,Burdett,8600,Found,1940,38.23333,-99.53333,H5
5394,Colby (Kansas),2400,Found,1940,39.41667,-101.05,H5
5414,Comanche (iron),19700,Found,1940,32.01667,-98.7,"Iron, IAB-sLL"
5464,Cranfills Gap,6000,Found,1940,31.75,-97.75,H6
6616,Davy (a),50600,Found,1940,29.1,-97.6,L4
6624,De Nova,12700,Found,1940,39.85,-102.95,L6
7756,Dwight,4100,Found,1940,38.85,-96.58333,L6
10035,Emsland,19000,Found,1940,53.1,7.2,"Iron, ungrouped"
10110,Fleming,1750,Found,1940,40.68333,-102.81667,H3.7
11908,Horace,19700,Found,1940,38.35,-101.78333,H5
12270,Kediri,3300,Fell,1940,-7.75,112.01667,L4
12453,Lamont,38690,Found,1940,38.07778,-96.02639,Mesosiderite
14657,Linwood,46000,Found,1940,41.43333,-96.96667,"Iron, IAB-MG"
16708,Moama,3416,Found,1940,-35.95,144.51667,Eucrite-cm
16991,Norcateur,3200,Found,1940,39.81667,-100.2,L6
18044,Otis,2600,Found,1940,38.53333,-99.05,L6
18107,Parma Canyon,2150,Found,1940,43.8,-117,Iron
22384,Ramnagar,3766,Fell,1940,26.45,82.9,L6
23177,Sardis,800000,Found,1940,32.94889,-81.865,"Iron, IAB complex"
23511,Seymour,25900,Found,1940,37.2375,-92.78694,"Iron, IAB-MG"
23651,Smithonia,69900,Found,1940,34,-83.16667,"Iron, IIAB"
24237,Wellman (a),55000,Found,1940,33.03333,-102.33333,H5
24258,Wickenburg (stone),9200,Found,1940,33.96667,-112.73333,L6
7,Abernathy,2914,Found,1941,33.85,-101.8,L6
5168,Burgavli,24900,Found,1941,66.4,137.46667,"Iron, IAB-MG"
5317,Chamberlin,2400,Found,1941,36.2,-102.45,H5
5507,Dalgety Downs,257000,Found,1941,-25.33333,116.18333,L4
11826,Harding County,3075,Found,1941,45.5,-103.5,L4
11865,Hayes Center,4500,Found,1941,40.51667,-101.03333,L6
15421,Maridi,3200,Fell,1941,4.66667,29.25,H6
15488,Mereta,1417.5,Found,1941,31.42611,-100.13333,H4
16774,Mount Egerton,22000,Found,1941,-24.76667,117.7,Aubrite-an
16961,New Westville,4800,Found,1941,39.8,-84.81667,"Iron, IVA"
18812,Phuoc-Binh,11000,Fell,1941,15.71667,108.1,L5
18878,Potter,261000,Found,1941,41.23333,-103.3,L6
23479,Seibert (a),3500,Found,1941,39.3,-102.83333,H5
23585,Sidney,6000,Found,1941,41.05,-102.9,L
23625,Slaton,1070,Found,1941,33.43333,-101.75,L4
24161,Vera,80000,Found,1941,-29.91667,-60.28333,L/LL4
393,Aggie Creek,43000,Found,1942,64.88333,-163.16667,"Iron, IIIAB"
2304,Ankober,6500,Fell,1942,9.53333,39.71667,H4
7645,Dimmitt,200000,Found,1942,34.58333,-102.16667,H3.7
7771,Edmonton (Kentucky),10200,Found,1942,37.03333,-85.63333,"Iron, IAB-sLM"
7820,El Timbu,500000,Found,1942,-33.11667,-60.96667,Iron
10120,Forest Vale,26000,Fell,1942,-33.35,146.85833,H4
12238,Kamalpur,2770,Fell,1942,26.03333,81.46667,L6
12251,Kapoeta,11355,Fell,1942,4.7,33.63333,Howardite
15454,Maziba,4975,Fell,1942,-1.21667,30,L6
16755,Mosca,6220,Found,1942,37.63333,-105.83333,L6
16803,Mount Sir Charles,22900,Found,1942,-23.83333,134.03333,"Iron, IVA"
23119,San Carlos,3600,Found,1942,-35.53333,-58.76667,H4
23727,Stonington,2700,Found,1942,37.28333,-102.2,H5
24148,Valentine,2300,Found,1942,42.93333,-100.75,L4
4911,Axtell,6200,Found,1943,31.66,-96.97167,CV3
5007,Belly River,7900,Found,1943,49.5,-113,H6
5023,Benoni,3880,Fell,1943,-26.16667,28.41667,H6
7754,Duwun,2117,Fell,1943,33.43333,127.26667,L6
12755,Leedey,51500,Fell,1943,35.88333,-99.33333,L6
12764,Leon,30000,Found,1943,37.66667,-96.76667,H5
15490,Mertzon,3720,Found,1943,31.26667,-100.83333,"Iron, IAB-ung"
16739,Moorumbunna,77000,Found,1943,-28.91667,136.25,"Iron, IIIAB"
7643,Dimboola,16000,Found,1944,-36.5,142.03333,H5
7733,Drum Mountains,529000,Found,1944,39.5,-112.9,"Iron, IIIAB"
10857,Garden Head,1296,Found,1944,49.81667,-108.46,"Iron, IAB-sHH"
11479,Hallingeberg,1456,Fell,1944,57.81667,16.23333,L3.4
16820,Mtola,1100,Fell,1944,-11.5,33.5,Stone-uncl
16910,Nardoo (no. 1),3180,Found,1944,-29.53333,143.98333,H5
16911,Nardoo (no. 2),1694,Found,1944,-29.5,144.06667,L6
18049,Oubari,8000,Found,1944,26.8,13.58333,LL6
24089,Twentynine Palms,19700,Found,1944,34.075,-116.01667,L
24109,Ultuna,1900,Found,1944,59.81667,17.66667,H
24144,Valdavur,2799,Fell,1944,11.98333,79.75,H6
24280,Wilmot,2000,Found,1944,37.38333,-96.86667,H6
4888,Atoka,1384.2,Fell,1945,34.31667,-96.15,L6
11843,Harrison Township,3263,Found,1945,38.33333,-101.71167,L6
12052,Isoulane-n-Amahar,72000,Found,1945,27.12917,8.66722,L6
12413,Laguna Manantiales,92000,Found,1945,-48.58333,-67.41667,Iron
15491,Meru,6000,Fell,1945,0,37.66667,LL6
16996,Norquín,19250,Found,1945,-37.71667,-70.61667,"Iron, IIIAB"
23671,Soroti,2050,Fell,1945,1.7,33.63333,"Iron, ungrouped"
24033,Tostado,22000,Found,1945,-29.23333,-61.76667,H6
24343,Wynella,40000,Found,1945,-28.95,148.13333,H4
52412,Fuhe,23000,Fell,1945,31.47556,113.56694,L5
5078,Bluewater,9540,Found,1946,35.26667,-107.96667,"Iron, IIIAB"
5177,Bursa,25000,Fell,1946,40.2,29.23333,L6
5391,Cockburn,2460,Found,1946,-32.13333,141.03333,L6
12080,Jenkins,55400,Found,1946,36.82444,-93.76111,"Iron, IAB-MG"
12320,Kinsella,3720,Found,1946,53.2,-111.43333,"Iron, IIIAB"
12357,Krasnyi Klyuch,4000,Fell,1946,54.33333,56.08333,H5
12364,Krymka,50000,Fell,1946,47.83333,30.76667,LL3.2
18786,Peña Blanca Spring,70000,Fell,1946,30.125,-103.11667,Aubrite
24210,Walters,28100,Fell,1946,34.33333,-98.3,L6
30376,Yudoma,7600,Found,1946,60,140,"Iron, IVA"
55546,Binneringie,9056,Found,1946,-31.4875,122.12389,H5
371,Acme,75000,Found,1947,33.63333,-104.26667,H5
2293,Amherst,8500,Found,1947,40.8,-99.2,L6
5289,Casimiro de Abreu,25000,Found,1947,-22.46667,-42.21667,"Iron, IIIAB"
7760,Eagle,10000,Fell,1947,40.78167,-96.47167,EL6
11840,Harriman (Of),30000,Found,1947,35.95,-84.56667,"Iron, IVA"
11886,Hill City,11700,Found,1947,39.36667,-99.85,"Iron, IVA"
12234,Kalkaska,9399,Found,1947,44.64694,-85.13667,"Iron, IIIAB"
12461,Långhalsen,2300,Fell,1947,58.85,16.73333,L6
14720,Loyola,2077,Found,1947,0,0,L5
18788,Penokee,3580,Found,1947,39.35,-99.91667,H5
18866,Pony Creek,4642,Found,1947,31.66333,-99.95,H4
22584,Reliegos,17300,Fell,1947,42.475,-5.33333,L5
23134,Sand Draw,1200,Found,1947,40.81667,-102.25,H5
23593,Sikhote-Alin,23000000,Fell,1947,46.16,134.65333,"Iron, IIAB"
24326,Wolf Creek,760000,Found,1947,-19.3,127.76667,"Iron, IIIAB"
5096,Bogoslovka,2180,Found,1948,52.5,68.8,H5
7720,Dorrigo,8500,Found,1948,-30.28333,152.66667,"Iron, ungrouped"
7740,Duketon,118300,Found,1948,-27.5,122.36667,"Iron, IIIAB"
10022,Ellis County,4692,Found,1948,38.78333,-99.33333,H6
10843,Gail,4650,Found,1948,32.7,-101.6,H4
12302,Kielpa,13600,Found,1948,-33.6,136.1,H5
15414,Mardan,4500,Fell,1948,34.23333,72.08333,H5
16712,Modoc (1948),1800,Found,1948,38.5,-101.1,H6
16938,Neenach,13800,Found,1948,34.8,-118.5,L6
17922,Norton County,1100000,Fell,1948,39.68333,-99.86667,Aubrite
22605,Rifle,102700,Found,1948,38.51667,-107.83333,"Iron, IAB-MG"
22785,Rush County,4300,Found,1948,39.5,-85.5,H5
24140,Uzcudun,20000,Fell,1948,-44.11667,-66.15,L
24211,Waltman,23410,Found,1948,43,-107.16667,L4
456,Albin (stone),15400,Found,1949,41.41667,-104.1,L
2281,Almelo Township,3180,Found,1949,39.6,-100.11667,L5
5026,Benton,2840,Fell,1949,45.95,-67.55,LL6
5141,Briggsdale,2230,Found,1949,40.66667,-104.31667,"Iron, IIIAB"
5392,Cocklebiddy,19500,Found,1949,-31.93333,126.21667,H5
5503,Dadin,27300,Found,1949,-38.91667,-69.2,Iron
7644,Dimitrovgrad,100000,Found,1949,43.04639,22.86389,"Iron, IIIAB"
12377,Kunashak,200000,Fell,1949,55.78333,61.36667,L6
16627,Mezel,1300,Fell,1949,45.76667,3.25,L6
16704,Mission,12000,Found,1949,43.31667,-100.76667,L
22783,Rupota,6000,Fell,1949,-10.26667,38.76667,L4-6
23485,Seligman,2200,Found,1949,35.28333,-112.86667,"Iron, IAB-MG"
24348,Xiquipilco no. 2,1124,Found,1949,0,0,Iron
2340,Arroyo Aguiar,7450,Fell,1950,-31.41667,-60.66667,H5
4955,Barwise,10400,Found,1950,34,-101.5,H5
5004,Belle Plaine,78800,Found,1950,37.31667,-97.25,L6
5381,Clinton,7700,Found,1950,36.08333,-84.2,Iron
6657,Densmore (1950),11300,Found,1950,39.56583,-99.64722,H6
10842,Gahanna,1201,Found,1950,40.01667,-82.86667,"Iron, IAB-MG"
11814,Hammond Downs,27000,Found,1950,-25.46667,142.8,H4
11858,Haven,6100,Found,1950,37.96417,-97.75583,H6
12271,Keen Mountain,6690,Found,1950,37.21667,-82,"Iron, IIAB"
12317,Kingfisher,8180,Found,1950,35.83333,-97.93333,L5
12367,Kuga,5600,Found,1950,34.1,132.08333,"Iron, IIIAB"
15379,Madhipura,1000,Fell,1950,25.91667,86.36667,L
15477,Melvern Lake,7746,Found,1950,38.525,-95.78056,H5
16725,Monte das Fortes,4885,Fell,1950,38.01667,-8.25,L5
16882,Murray,12600,Fell,1950,36.6,-88.1,CM2
18116,Patrimonio,2121,Fell,1950,-19.53333,-48.56667,L6
18842,Plainview (1950),2200,Found,1950,34.11667,-101.78333,H
23089,St. Louis,1000,Fell,1950,38.7,-90.23333,H4
23168,Santa Rosalia,1631,Found,1950,27.33333,-112.33333,"Pallasite, PMG"
23797,Tambo Quemado,141000,Found,1950,-14.66667,-74.5,"Iron, IIIAB"
24158,Vengerovo,10800,Fell,1950,56.13333,77.26667,H5
24320,Withrow,8732,Found,1950,47.70667,-119.83,"Iron, IIIAB?"
56575,Sterley,1724.8,Found,1950,34.21,-101.39,"Pallasite, PMG"
5,Abbott,21100,Found,1951,36.3,-104.28333,H3-6
5025,Benthullen,17000,Found,1951,53.05,8.1,L6
5347,Chico Hills,8030,Found,1951,36,-104.5,H4
7736,Dubrovnik,1900,Fell,1951,42.45833,18.44167,L3-6
7824,Elenovka,54640,Fell,1951,47.83333,37.66667,L5
10054,Esquel,755000,Found,1951,-42.9,-71.33333,"Pallasite, PMG"
11471,Haig,503000,Found,1951,-31.38333,125.63333,"Iron, IIIAB"
11879,Hesston,12900,Found,1951,38.11667,-97.43333,L6
12358,Kress (a),12500,Found,1951,34.35833,-101.73,L6
15409,Manych,3555,Fell,1951,45.81667,44.63333,LL3.4
22601,Richland,50600,Found,1951,31.9,-96.4,"Iron, IIAB"
24279,Willowdale,3000,Found,1951,37.53333,-98.36667,H4
6,Abee,107000,Fell,1952,54.21667,-113,EH4
389,Adzhi-Bogdo (iron),582000,Found,1952,44.86667,95.41667,"Iron, IAB complex"
4905,Avanhandava,9330,Fell,1952,-21.46028,-49.95083,H4
10071,Faith,105000,Found,1952,45.33333,-102.08333,H5
10168,Fort Stockton,4762.8,Found,1952,30.91667,-103.06667,Iron
12330,Klamath Falls,17000,Found,1952,42.16667,-121.85,"Iron, IIIF"
16697,Min-Fan-Zhun,5500,Fell,1952,32.33333,120.66667,LL6
18067,Ozren,3900,Found,1952,44.6125,18.41806,"Iron, IAB-MG"
18814,Picacho,22000,Found,1952,33.2,-105,"Iron, IIIAB"
23735,Sublette,1300,Found,1952,37.5,-100.83333,L6
24173,View Hill,33600,Found,1952,-43.32,172.06333,"Iron, IIIAB"
47729,El-Oued,2305,Found,1952,31.533333,8.883333,H4
7730,Dresden (Kansas),6760,Found,1953,39.61667,-100.46306,H5
14679,Lombard,7000,Found,1953,46.1,-111.4,"Iron, IIAB"
22763,Roper River,6400,Found,1953,-15,135,"Iron, IIIAB"
24085,Turtle River,22390,Found,1953,47.6,-94.76667,"Iron, IIIAB"
24159,Ventura,7700,Found,1953,34.25,-119.3,"Iron, IAB-ung"
24330,Woodbine,48200,Found,1953,42.34667,-90.1675,"Iron, IAB-ung"
5346,Chico,104800,Found,1954,36.5,-104.2,L6
5384,Clover Springs,7700,Found,1954,34.45,-111.36667,Mesosiderite-A2
10108,Flagg,7000,Found,1954,34.43333,-102.51667,L5
10911,Ghubara,1750000,Found,1954,19.22778,56.14278,L5
10918,Giroux,4275,Found,1954,49.61667,-96.55,"Pallasite, PMG"
12049,Ishinga,1300,Fell,1954,-8.93333,33.8,H
12082,Jerome (Idaho),6800,Found,1954,42.63333,-114.83333,L
15407,Manlai,166800,Found,1954,44.33333,106.5,"Iron, ungrouped"
16977,Nikolskoe,6000,Fell,1954,56.11667,37.33333,L4
18080,Palo Blanco Creek,1482,Found,1954,36.5,-104.5,Eucrite-mmict
18829,Pinto Mountains,17900,Found,1954,34,-115.78333,L6
23773,Sylacauga,5560,Fell,1954,33.18836,-86.2945,H4
23879,Tarfa,1040,Found,1954,19.5,55.5,L6
24113,Umbarger,13000,Found,1954,34.95,-102.1175,L6
30348,Yangchiang,20000,Fell,1954,21.83333,111.83333,H5
48959,Palmas de Monte Alto,97000,Found,1954,-14.3675,-43.02278,"Iron, IIIAB"
473,al-Jimshan,11450,Found,1955,20.7,52.83333,H4
2321,Arabella,1000,Found,1955,0,0,Iron
4882,Aswan,12000,Found,1955,23.98611,32.62361,"Iron, IAB-ung"
5006,Bellsbank,38000,Found,1955,-28.08333,24.08333,"Iron, IIG"
7712,Dora (pallasite),7600,Found,1955,33.92667,-103.955,"Pallasite, PMG"
7768,Edmonson (a),12000,Found,1955,34.28333,-101.83333,L6
11200,Gressk,303000,Found,1955,53.23333,27.33333,"Iron, IIAB"
11905,Hope,6800,Found,1955,33.68333,-93.6,"Iron, IAB-MG"
12263,Karloowala,2950,Fell,1955,31.58333,71.6,L6
12450,Lakewood,46500,Found,1955,32.62972,-104.35,L6
15425,Marion (Kansas),2890,Found,1955,38.36667,-97.03333,L5
15448,Mayday,6900,Found,1955,39.47444,-96.925,H4
15495,Messina,2405,Fell,1955,38.18333,15.56667,L5
23977,Thule,48600,Found,1955,76.53333,-67.55,"Iron, IIIAB"
24090,Twin City,5130,Found,1955,32.58333,-82.01667,"Iron, IAB-ung"
24236,Wellington,13400,Found,1955,34.95,-100.25,H5
30400,Zenda,3700,Found,1955,42.51333,-88.48944,"Iron, IAB complex"
30415,Zvonkov,2568,Fell,1955,50.2,30.25,H6
5103,Bondoc,888600,Found,1956,13.51667,122.45,Mesosiderite-B4
5134,Breitscheid,1500,Fell,1956,50.66694,8.18361,H5
5415,Comanche (stone),2400,Found,1956,31.99167,-98.65167,L5
6658,Densmore (c),3900,Found,1956,0,0,OC
7741,Dumas (a),46050,Found,1956,35.9,-101.9,H5
12000,Idutywa,3457,Fell,1956,-32.1,28.33333,H5
12233,Kaldoonera Hill,12000,Found,1956,-32.61667,134.85,H6
12388,Kybunga,7900,Found,1956,-33.9,138.48333,L5
12405,La Villa,19800,Found,1956,26.27167,-97.90167,H4
12443,Lake Grace,10500,Found,1956,-33.06667,118.21667,L6
16889,Nadiabondi,8165,Fell,1956,12,1,H5
18103,Paranaiba,100000,Fell,1956,-19.13333,-51.66667,L6
18855,Point of Rocks (iron),18000,Found,1956,36.5,-104.5,"Iron, IIIAB"
23613,Sinnai,2000,Fell,1956,39.3,9.2,H6
23799,Tamir-Tsetserleg,173000,Found,1956,47.45,101.47917,Stone-uncl
23983,Tianlin,300000,Found,1956,24.3,106.1,"Iron, IAB complex"
24052,Trifir,1000,Found,1956,20.05,-1.68333,L6
24208,Walltown,1600,Found,1956,37.325,-84.71667,L6
31354,Zerkaly,16000,Found,1956,52.13333,81.96667,H5
52413,Nicolás Levalle,60000,Found,1956,-38.85028,-62.87889,L5
10121,Forestburg (a),26100,Found,1957,33.50667,-97.65139,L4
10122,Forestburg (b),26600,Found,1957,33.49556,-97.58861,L5
11993,Ibitira,2500,Fell,1957,-20,-45,Eucrite-mmict
11999,Ider,140000,Found,1957,34.68333,-85.65,"Iron, IIIAB"
12089,Jiddat al Harasis,1400,Found,1957,19.25,56.06667,H4
22368,Raco,5000,Fell,1957,-26.66667,-65.45,H5
23094,St. Peter,6800,Found,1957,39.4,-100.03333,L5
23523,Shangdu,247000,Found,1957,42.5,114,"Iron, IIIAB"
23677,South Dahna,275000,Found,1957,22.56667,48.3,"Iron, IAB complex"
23762,Susuman,18900,Found,1957,62.72139,148.13028,"Iron, IIIAB"
30371,Yorktown (Texas),3500,Found,1957,28.95,-97.40278,H5
5008,Belmont,25300,Found,1958,42.73333,-90.35,H6
5061,Bison,11000,Found,1958,38.30667,-99.71,LL6
5201,Calliham,40000,Found,1958,28.41667,-98.25,L6
11476,Hajmah (c),1132,Found,1958,19.91667,56.25,L5/6
16906,Nantan,9500000,Found,1958,25.1,107.7,"Iron, IAB-MG"
22386,Ramsdorf,4682,Fell,1958,51.88333,6.93333,L6
23169,Santiago Papasquiero,119500,Found,1958,24.5,-106,"Iron, ungrouped"
23664,Sombrerete,10000,Found,1958,23.63333,-103.66667,"Iron, IAB-sHL"
44709,Crow Peak,6320,Found,1958,44.47733,-103.972,"Iron, IIAB"
432,Akwanga,3000,Fell,1959,8.91667,8.43333,H
452,Alatage,37500,Found,1959,42.33333,93,"Iron, IIIAB"
467,Algarrobo,1280,Found,1959,-27.08333,-70.58333,"Iron, IAB-ung"
4920,Bagdad,2200,Found,1959,34.613317,-113.398967,"Iron, IIIAB"
5305,Cee Vee,3600,Found,1959,34.2,-100.48333,H5
10012,Elga,28800,Found,1959,64.7,141.2,"Iron, IIE"
11485,Hamlet,3710,Fell,1959,41.38333,-86.6,LL4
14645,Liangcheng,200000,Found,1959,40.5,112.5,"Iron, IIIAB"
14660,Lismore,10000,Found,1959,-35.95,143.33333,"Iron, IIIAB?"
18887,Pribram,5555,Fell,1959,49.66667,14.03333,H5
23894,Temple,5000,Found,1959,31.11667,-97.3,L6
30352,Yardymly,150200,Fell,1959,38.93333,48.25,"Iron, IAB complex"
469,al-Ghanim (stone),3755,Found,1960,19.7,53.96667,L6
2337,Arrabury,5300,Found,1960,-26.5,141.08333,H6
2354,as-Su'aydan,5855,Found,1960,21.25417,55.305,L5
5154,Brownfield (iron),1626,Found,1960,33.21667,-102.18333,"Iron, IID"
5156,Bruderheim,303000,Fell,1960,53.9,-112.88333,L6
5378,Cleo Springs,24000,Found,1960,36.43333,-98.43333,H4
6622,De Hoek,20930,Found,1960,-29.38333,23.1,"Iron, ungrouped"
10021,Ellicott,15700,Found,1960,38.80778,-104.56944,"Iron, IAB-ung"
12059,Itutinga,3200,Found,1960,-21.33333,-44.66667,"Iron, IIIAB"
16643,Millbillillie,330000,Fell,1960,-26.45,120.36667,Eucrite-mmict
16842,Muenatauray,30000,Found,1960,4.9,-61.2,"Iron, IIAB"
17986,Odessa (stone),1926,Found,1960,46.5,30.76667,H4
22598,Richa,1500,Found,1960,10,9,"Iron, IID"
23170,São João Nepomuceno,15300,Found,1960,-21.55,-43.01667,"Iron, IVA-an"
23484,Selden,1560,Found,1960,39.53333,-100.56667,LL5
24160,Venus,1013,Found,1960,32.4,-97.08333,H4
24334,Woolgorong,36000,Fell,1960,-27.75,115.83333,L6
31330,Stoneham,5000,Found,1960,40.63783,-103.69717,H5
55758,Watonga,5025,Found,1960,35.833333,-98.4,LL3.1
376,ad-Dahbubah,90000,Found,1961,19.83333,51.25,H5
431,Akron (1961),4000,Found,1961,40.15,-103.16667,L6
2307,Anoka,1108,Found,1961,45.2,-93.43333,"Iron, IAB-sLM"
4973,Batesland,2500,Found,1961,43.13333,-102.1,H5
5197,Caldwell,12900,Found,1961,37.03333,-97.625,L-imp melt
5258,Canyonlands,1520,Found,1961,38.18333,-109.88333,H6
5385,Clovis (no. 1),283000,Found,1961,34.3,-103.13472,H3.6
7656,Djermaia,3950,Fell,1961,12.73333,15.05,H
7744,Duncanville,17800,Found,1961,32.63333,-96.86667,H
7774,Ehole,2400,Fell,1961,-17.3,15.83333,H5
10064,Eunice,2300,Found,1961,34.47,-101.75833,H5
11830,Harleton,8360,Fell,1961,32.675,-94.51167,L6
12261,Kargapole,21800,Found,1961,55.88333,64.3,H4
12268,Kayakent,85000,Fell,1961,39.26333,31.78,"Iron, IIIAB"
12279,Kennard,8200,Found,1961,41.48333,-96.16667,H5
12436,Lake Bonney,2750,Found,1961,-37.75,140.3,L6
12745,Lazarev,10000,Found,1961,-71.95,11.5,"Iron, ungrouped"
12766,Leoville,8100,Found,1961,39.63333,-100.46722,CV3
22595,Rhineland,6240,Found,1961,33.53333,-99.61667,H5
23488,Seminole,43900,Found,1961,32.68333,-102.61667,H4
23770,Sweetwater,1760,Found,1961,32.55,-100.41667,H5
372,Acomita,3956,Found,1962,35.05,-107.56667,"Pallasite, PMG"
4927,Balfour Downs,2400,Found,1962,-22.75,120.83333,"Iron, IAB-sLL"
5097,Bogou,8800,Fell,1962,12.5,0.7,"Iron, IAB-MG"
5124,Bowesmont,2270,Found,1962,48.68333,-97.16667,L6
5161,Budulan,100000,Found,1962,50.56667,114.9,Mesosiderite-B4
5380,Clifford,11360,Found,1962,39.1,-103.25833,L6
5437,Coonana,6800,Found,1962,-29.85,140.7,H4
6693,Desuri,25400,Fell,1962,25.73333,73.61667,H6
7722,Dosso,1250,Fell,1962,13.05,3.16667,L6
7772,Efremovka,21000,Found,1962,52.5,77,CV3
10031,Emery,16700,Found,1962,43.56333,-97.58333,Mesosiderite-A3
10104,Finney,10700,Found,1962,34.26667,-101.56667,L5
11987,Hunter,74600,Found,1962,36.56,-97.66667,LL5
14702,Loop,5600,Found,1962,32.9,-102.28333,L6
15406,Manitouwabing,39000,Found,1962,45.44,-79.87556,"Iron, IIIAB"
16936,Needles,45300,Found,1962,34.44417,-114.8325,"Iron, IID"
22772,Rowena,34700,Found,1962,-29.8,148.63333,H6
23099,Ste. Marguerite,4960,Fell,1962,50.76667,3,H4
23469,Seagraves,13000,Found,1962,32.93333,-102.58333,H4
23533,Shields,9780,Found,1962,38.7,-100.35,H5
23589,Sierra County,1000,Found,1962,33,-107.5,H5
23627,Sleeper Camp 001,1250,Found,1962,-30.25,126.33333,L6
23647,Slovak,8220,Found,1962,34.65,-91.58333,H5
23911,Thiel Mountains,31700,Found,1962,-85.45,-90,"Pallasite, PMG"
24035,Toulon,1214.5,Found,1962,41.11667,-89.80833,H5
24091,Two Buttes (a),19700,Found,1962,37.63333,-102.41667,H5
24150,Valkeala,4000,Found,1962,61.05,26.83333,L6
24192,Vulcan,19000,Found,1962,50.51667,-113.13333,H6
24275,Williston,7645,Found,1962,47.98333,-103.65,"Iron, IIIAB"
30386,Zagami,18000,Fell,1962,11.73333,7.08333,Martian (shergottite)
4891,Atwood,2100,Found,1963,40.51667,-103.26667,L6
5278,Carnegie,132700,Found,1963,35.16667,-98.64389,L6
5386,Clovis (no. 2),41300,Found,1963,34.3,-103.13333,L6
10181,Fremont Butte,6647,Found,1963,38.5,-105.5,L4
11851,Hassayampa,16000,Found,1963,33.75,-112.66667,H4
12037,Inner Mongolia,3000,Fell,1963,41,112,L6
12200,Jonah,1304,Found,1963,30.625,-97.53333,H5
12258,Karatu,2220,Fell,1963,-3.5,35.58333,LL6
12432,Lahoma,21800,Found,1963,36.38333,-98.08333,L5
16757,Mosquero,1800,Found,1963,35.75,-103.93333,H4
16845,Mulberry Draw,9716,Found,1963,35.63333,-100.13333,L5
17996,Ohuma,7700,Fell,1963,6.75,8.5,L5
18180,Peace River,45760,Fell,1963,56.13333,-117.93333,L6
23110,Salla,7000,Found,1963,66.8,28.45,L6
23793,Talpa,13000,Found,1963,31.86667,-99.58333,H6
24014,Tobe,5386,Found,1963,37.2,-103.58333,H4
24132,Usti Nad Orlici,1269,Fell,1963,49.975,16.375,L6
24200,Waka,11875,Found,1963,36.15,-101.05,H6
24212,Warburton Range,56930,Found,1963,-26.28333,126.66667,"Iron, IVB"
5152,Brownfield (1964),4100,Found,1964,33.21667,-102.18333,H5
5163,Bulls Run,2250,Fell,1964,0,0,Iron?
5250,Çanakkale,4000,Fell,1964,39.8,26.6,L6
5323,Changxing,27900,Found,1964,31.33333,121.66667,H5
5339,Chernyi Bor,6000,Fell,1964,53.7,30.1,H4
5375,Claytonville,15600,Found,1964,34.34667,-101.49,L5
5446,Corowa,11340,Found,1964,-36,146.36667,"Iron, IIF"
10182,Frenchman Bay,8800,Found,1964,-30.60833,115.16667,H3.5
10956,Granes,9000,Fell,1964,42.9,2.25,L6
10959,Grassland,4400,Found,1964,33.11667,-101.58333,L4
12257,Karasburg,12000,Found,1964,-27.66667,18.96667,"Iron, IIIAB?"
14703,Loop (b),1600,Found,1964,32.99167,-102.38833,H
15449,Mayerthorpe,12610,Found,1964,53.775,-115.03333,"Iron, IAB complex"
16785,Mount Padbury,272000,Found,1964,-25.66667,118.1,Mesosiderite-A1
16847,Mulga (north),19900,Found,1964,-30.18333,126.36667,H6
16884,Muslyumovo,10580,Found,1964,55.3,53.2,H4
16885,Muzaffarpur,1245,Fell,1964,26.13333,85.53333,"Iron, IAB-sHL"
16944,Neptune Mountains,1070,Found,1964,-83.25,-55,"Iron, IAB complex"
18839,Plains,34300,Found,1964,33.28333,-102.76667,H5
23179,Sargiin Gobi,17500,Found,1964,45.9835,105.75883,"Iron, IAB complex"
23763,Sutton,7600,Found,1964,40.6,-97.86667,H5
24239,Wellman (c),45000,Found,1964,33.03333,-102.33333,H4
30363,Yingde,3000000,Found,1964,24.2,113.4,"Iron, IVA"
2311,Anton,41800,Found,1965,33.7825,-102.18111,H4
4954,Barwell,44000,Fell,1965,52.56528,-1.33972,L5
5092,Bocaiuva,64000,Found,1965,-17.16667,-43.83333,"Iron, ungrouped"
5173,Burnabbie,2515,Found,1965,-32.05,126.16667,H5
5298,Catherwood,3920,Found,1965,51.965,-107.43833,L6
5418,Conquista,20350,Fell,1965,-19.85,-47.55,H4
6639,Del Rio,3596,Found,1965,29.36667,-100.96667,"Iron, IIF"
10045,Erie,3300,Found,1965,40.03167,-105.05667,L6
10062,Etter,450000,Found,1965,35.98333,-101.9,L5
10066,Eva,6700,Found,1965,36.81667,-101.90833,H5
10090,Ferintosh,2201,Found,1965,52.8,-112.98333,OC
11484,Hamilton (Texas),2700,Found,1965,31.59333,-98.25,OC
11867,Hebron,21820,Found,1965,40.16667,-97.6,H6
12223,Kaffir (a),1874.9,Found,1965,34.62333,-101.91667,L5
12319,Kinley,2000,Found,1965,52.04667,-107.23333,L6
12389,Kyle,7780,Found,1965,29.975,-97.86667,L6
14666,Little River (b),11700,Found,1965,38.44,-98.06667,H4/5
14682,Lone Star,4300,Found,1965,34.25972,-101.40833,H4
15459,McCook,3602,Found,1965,40.02,-100.78333,L6
16731,Monturaqui,2000,Found,1965,-23.93333,-68.28333,"Iron, IAB?"
16735,Moorabie,14040,Found,1965,-30.01667,141.06667,L3.8-an
16997,Norristown,4200,Found,1965,32.51667,-82.55,"Iron, IIIAB"
18877,Post,2000,Found,1965,33.11667,-101.38333,L
23088,St. Lawrence,2600,Found,1965,31.73333,-101.505,LL6
23489,Seminole (b),1184,Found,1965,32.54333,-102.705,H4
23507,Severny Kolchim,1390,Found,1965,60.5,57,H3
23688,Springer,8143,Found,1965,36.34611,-97.185,H5
23873,Taonan,3850,Fell,1965,45.4,122.9,L5
23980,Thurman,1959,Found,1965,39.52167,-103.16667,OC
24010,Tishomingo,260000,Found,1965,34.25,-96.68333,"Iron, ungrouped"
24163,Verissimo,14000,Found,1965,-19.73333,-48.31667,"Iron, IIIAB"
24207,Wallareenya,4386,Found,1965,-20.66667,118.83333,"Iron, IIIAB"
55760,New York,2950,Found,1965,0,0,"Iron, IIIAB"
457,Albion,12280,Found,1966,46.83333,-117.25,"Iron, IVA"
4909,Avoca (Western Australia),37850,Found,1966,-30.85,122.31667,"Iron, IIIAB"
7821,Elba,4175,Found,1966,39.83333,-103.21667,H5
10077,Faucett,100000,Found,1966,39.61667,-94.86667,H5
10113,Floyd,13000,Found,1966,34.19333,-103.575,L4
11483,Hamilton (Queensland),68000,Found,1966,-28.48333,148.25,L6
12036,Inman,7250,Found,1966,38.25,-97.66667,L/LL3.4
12224,Kaffir (b),3500,Found,1966,34.67167,-101.815,H4
12354,Kramer Creek,2300,Found,1966,38.3925,-104.17667,L4
12359,Kress (b),2600,Found,1966,34.35833,-101.73,L4
18173,Pavel,2968,Fell,1966,43.46667,25.51667,H5
23102,Saint-Séverin,271000,Fell,1966,45.3,0.23333,LL6
23500,Seoni,20000,Fell,1966,21.68389,79.50083,H6
23622,Skiff,3540,Found,1966,49.25,-111.86667,H4
24118,Umm Ruaba,1700,Fell,1966,13.46667,31.21667,L5
24240,Wellman (d),1615,Found,1966,33.01667,-102.36667,H
30364,Yocemento,5920,Found,1966,38.9,-99.43333,L4
30405,Zhigansk,900000,Found,1966,68,128.3,"Iron, IIIAB"
2336,Armel,9200,Found,1967,39.76667,-102.13333,L5
5468,Credo,10820,Found,1967,-30.36667,120.73333,L6
10116,Fluvanna (a),9500,Found,1967,32.8,-101.11667,L5
11847,Hartley,2100,Found,1967,35.94167,-102.16,L
12738,Laundry Rockhole,1443,Found,1967,-31.53333,127.01667,H5
12739,Laundry West,4002,Found,1967,-31.46667,126.93333,L4
14665,Little River (a),4400,Found,1967,38.38333,-98.01667,H6
15427,Markovka,54200,Found,1967,52.4,79.8,H4
15444,Masua,1460,Found,1967,0,0,"Iron, IAB-sLL"
16758,Mossgiel,32383,Found,1967,-33.31667,144.78333,L4
16929,Nazareth (b),3600,Found,1967,34.5,-102.25,L6
17928,Nova Petropolis,305000,Found,1967,-29.43333,-50.91667,"Iron, IIIAB"
18102,Parambu,2000,Fell,1967,-6.23333,-40.7,LL5
18871,Portales (a),3240,Found,1967,34.06667,-103.5,H4
18873,Portales (c),6000,Found,1967,34.1,-103.41667,H4
23490,Seminole (c),1711,Found,1967,32.55,-102.39167,H4
23510,Seymchan,323300,Found,1967,62.9,152.43333,"Pallasite, PMG"
23885,Tathlith,2500,Fell,1967,19.38333,43.73333,L6
23985,Tiberrhamine,107000,Found,1967,28.11667,0.53333,L6
24062,Tugalin-Bulen,10000,Fell,1967,45.46667,105.38333,H6
24281,Wiluna,150000,Fell,1967,-26.59278,120.32833,H5
30403,Zerhamra,630000,Found,1967,29.85861,-2.645,"Iron, IIIAB-an"
428,Akhricha,1760,Found,1968,28.4625,1.025,H
5091,Boaz (stone),1800,Found,1968,33.65167,-103.70833,H5
5108,Boolka,12000,Found,1968,-30.06667,141.06667,H5
5508,Dalhart,4400,Found,1968,36.04333,-102.40833,H5
6645,Delphos (a),1244.7,Found,1968,34.08333,-103.525,L4
10085,Fenbark,1861,Found,1968,-30.44028,121.25694,H5
11998,Idalia,7400,Found,1968,39.695,-102.295,H
12213,Juromenha,25250,Fell,1968,38.74028,-7.27,"Iron, IIIAB"
12237,Kalvesta,10000,Found,1968,38.08333,-100.25,H4
16760,Motpena (a),8810,Found,1968,-31.1,138.26667,L6
16931,Nazareth (d),1500,Found,1968,34.58333,-102.08333,H6
16933,Nazareth (iron),11310,Found,1968,34.52667,-102.105,"Iron, IIIAB"
22365,Quinyambie,1638,Found,1968,-30.15,140.98333,LL3.6
23096,Saint-Aubin,472000,Found,1968,48.48333,3.58333,"Iron, IIIAB"
23655,Smyer,3273,Found,1968,33.58333,-102.16667,H6
24048,Tres Estacas,150000,Found,1968,0,0,OC
24058,Tsarev,1225300,Found,1968,48.7,45.7,L5
24265,Wildara,500000,Found,1968,-28.23333,120.85,H5
24344,Wynyard,3479,Found,1968,51.88333,-104.18333,H5
2278,Allende,2000000,Fell,1969,26.96667,-105.31667,CV3
2319,Aprel'sky,54600,Found,1969,53.3,126.11667,"Iron, IIIAB"
2349,Ashmore,55400,Found,1969,32.9,-102.28333,H5
5020,Benjamin,51800,Found,1969,33.58333,-99.8,H4/5
5121,Bovedy,5460,Fell,1969,54.56667,-6.33333,L3
5162,Buenaventura,113600,Found,1969,29.8,-107.55,"Iron, IIIAB"
7766,Edjudina,4480,Found,1969,-29.58639,122.18167,H4
10864,Garrison,5116,Found,1969,33.86333,-103.34667,H5
10928,Glasston,1990,Found,1969,48.71667,-97.3,L5
10939,Gobabeb,27000,Found,1969,-23.55,15.03333,H4
11445,Guin,34500,Found,1969,33.96667,-87.91667,"Iron, ungrouped"
12005,Ikhrarene,5465,Found,1969,28.60417,1.04167,L4
12767,Leoville (b),2500,Found,1969,39.60833,-100.475,OC
16875,Murchison,100000,Fell,1969,-36.61667,145.2,CM2
16886,Myersville,5397,Found,1969,28.95,-97.40278,OC
18096,Panhandle,1360,Found,1969,35.33333,-101.38333,H5
18104,Park,13000,Found,1969,39.11,-100.36167,L6
18112,Patora,4375,Fell,1969,20.93694,82.05,H6
22551,Redfields,8740,Found,1969,-30.71667,116.5,"Iron, ungrouped"
24335,Wooramel,71000,Found,1969,-25.65,114.21667,L5
30362,Yilmia,40000,Found,1969,-31.19167,121.53333,EL6
30382,Zacatecas (1969),6660,Found,1969,0,0,"Iron, IIIAB"
2309,Answer,11090,Found,1970,-21.65972,140.90694,Iron
5017,Benedict,16380,Found,1970,41,-97.53333,"Iron, IIIAB"
5044,Big Rock Donga,19000,Found,1970,-30.55,130.96667,H6
5074,Bledsoe,30500,Found,1970,33.59167,-103.02667,H4
7708,Dongtai,5500,Fell,1970,32.91667,120.78333,LL6
7713,Dora (stone),1570,Found,1970,33.92333,-103.35,OC
7755,Dwaleni,3230,Fell,1970,-27.2,31.31667,H4-6
7773,Egvekinot,10000,Found,1970,66.8,178.2,"Iron, IAB-sLM"
10023,Ellisras,2066,Found,1970,-23.83333,27.91667,Iron
10061,Etosha,110700,Found,1970,-18.5,16,"Iron, IC"
10063,Euclid,2500,Found,1970,47.95833,-96.7,H5
10083,Felt,5400,Found,1970,36.55,-102.78333,H6
10953,Grady (c),5700,Found,1970,34.8,-103.31667,H4
11846,Hart Camp,1200,Found,1970,33.99833,-102.17667,H6
11876,Hereford,2276,Found,1970,33.795,-102.24167,OC
12051,Isna,23000,Found,1970,24.83333,31.66667,CO3.8
12303,Kiffa,1500,Fell,1970,16.58333,-11.33333,H5
12327,Kittakittaooloo,3600,Found,1970,-28.03333,138.13333,H4
12449,Lakeview,1238,Found,1970,34.53333,-101.7,H4
12746,Lazbuddie,8600,Found,1970,34.5,-102.75,LL5
14711,Lost City,17000,Fell,1970,36.00833,-95.15,H5
15394,Malakal,2000,Fell,1970,9.5,31.75,L5
16687,Mills,88000,Found,1970,36.23,-104.11889,H6
16941,Nejo,2450,Fell,1970,9.5,35.33333,L6
23999,Tillaberi,3000,Fell,1970,14.25,1.53333,L6
24030,Toronto,2715,Found,1970,0,0,"Iron, IAB complex"
24092,Two Buttes (b),3000,Found,1970,37.63333,-102.41667,H
24097,Ucera,4590,Fell,1970,11.05,-69.85,H5
24272,Willaroy,4030,Found,1970,-30.1,143.2,H3.8-an
2305,Anlong,2500,Fell,1971,25.15,105.18333,H5
5150,Brownell,2000,Found,1971,38.69667,-99.70833,L6
5164,Bunjil,38750,Found,1971,-29.62917,116.48222,L6
5174,Burns Flat,1987,Found,1971,35.33333,-99.15,L6
10018,Ella Island,7500,Found,1971,72.88333,-25.11667,L6
10030,Elyria,10900,Found,1971,38.28,-97.365,"Iron, IIIAB"
10847,Galatia,23900,Found,1971,38.64167,-98.88333,L6
11431,Guadalupe y Calvo,58630,Found,1971,26.1,-106.96667,"Iron, IIAB"
11818,Happy (a),2860,Found,1971,35.68,-101.99333,H3
11821,Happy Canyon,16300,Found,1971,34.80167,-101.56667,EL6/7
11859,Haverö,1544,Fell,1971,60.24556,22.06194,Ureilite
12220,Kabo,13400,Fell,1971,11.85,8.21667,H4
14683,Lone Tree,20676,Found,1971,41.5,-91.47917,H4
15422,Marilia,2500,Fell,1971,-22.25,-49.93333,H4
17007,North West Forrest (E6),4400,Found,1971,-30.6,127.81667,EL6
18861,Polujamki,18350,Found,1971,52.1,79.7,H4
22359,Queretaro,5000,Found,1971,20.63333,-100.38333,H4
22375,Rakity,11400,Found,1971,51.8,79.9,L3
23105,Salaices,24500,Found,1971,27,-105.25,H4
23132,Sanclerlandia,279000,Found,1971,-16.21667,-50.3,"Iron, IIIAB"
23582,Shuangyang,3900,Fell,1971,43.5,125.66667,H5
23680,South Plains,4763,Found,1971,34.26667,-101.25,L5
24015,Tobychan,52100,Found,1971,0,0,"Iron, IIE"
24256,Wichita,2367,Found,1971,37.59183,-97.21497,H6
24278,Willowbar,2070,Found,1971,36.73333,-102.2,L6
30365,Yongning,60000,Found,1971,22.75,108.33333,"Iron, IAB-ung"
51739,Cruz del Eje,14000,Found,1971,-30.75,-64.78333,"Iron, IAB complex"
377,Adelaide,2031,Found,1972,0,0,C2-ung
2308,Anson,3900,Found,1972,39.33333,-97.56167,L6
5125,Bowesmont (b),1300,Found,1972,48.78333,-97.35,L5
6640,Delaware,8346,Found,1972,35.28333,-93.5,L4
7711,Dor el Gani,2575,Found,1972,26.95833,16.03333,"Iron, IIIAB"
11819,Happy (b),2505,Found,1972,34.59333,-101.99333,OC
11827,Hardtner,13000,Found,1972,37.06667,-98.66167,L6
12043,Ipiranga,7000,Fell,1972,-25.5,-54.5,H6
12277,Kenna,10900,Found,1972,33.9,-103.55333,Ureilite
12304,Kifkakhsyagan,18800,Found,1972,64.4,172.7,"Iron, IIIAB"
14648,Lider (a),2160,Found,1972,34.655,-101.64,L5
14649,Lider (b),1800,Found,1972,34.655,-101.64,H5
15450,Mayfield,38400,Found,1972,37.30833,-97.545,H4
16846,Muleshoe,3600,Found,1972,34.12167,-102.695,H4/6
17010,Northbranch,76000,Found,1972,39.99167,-98.34167,H5
22373,Raguli,4239,Found,1972,45.7,43.7,H3.8
22655,Roosevelt,5200,Found,1972,34.86667,-98.95,H3.4
24149,Valera,50000,Fell,1972,9.31667,-70.62833,L5
24221,Watson 001,93000,Found,1972,-30.5,131.55,"Iron, IIE"
24246,West Point,3100,Found,1972,33.075,-102.045,L6
30564,Flagler,4100,Found,1972,39.23,-102.99,H3.8
475,Alkhamasin,1200000,Found,1973,20.6,44.88333,"Iron, IIAB"
2324,Araslanovo,132000,Found,1973,55.14167,48.2,L/LL5
5253,Canon City,1400,Fell,1973,38.47028,-105.24139,H6
5405,Colonia Obrera,12200,Found,1973,24.01667,-104.66667,"Iron, IIIE"
7817,El Sampal,142000,Found,1973,-44.53333,-70.36667,"Iron, IIIAB"
14646,Lichtenberg,4000,Fell,1973,-26.15,26.18333,H6
14750,Lueders,35400,Found,1973,32.83611,-99.60417,"Iron, IAB-MG"
24225,Wayside,23600,Found,1973,34.80167,-101.68333,H6
423,Aioun el Atrouss,1000,Fell,1974,16.39806,-9.57028,Diogenite-pm
4932,Balsas,41000,Found,1974,-7.53133,-46.04117,"Iron, IIIAB"
5070,Blaine Lake,1896.4,Found,1974,52.77,-106.89667,L6
5153,Brownfield (c),1550,Found,1974,33.135,-102.27833,OC
10038,Enshi,8000,Fell,1974,30.3,109.5,H5
10069,Fairfield,1600,Found,1974,39.33333,-84.6,"Iron, IAB-MG"
10944,Gomez,47000,Found,1974,33.18139,-102.40139,L6
10949,Gorlovka,3618,Fell,1974,48.28333,38.08333,H3.7
11881,Hickiwan,1928,Found,1974,32.35833,-112.40889,H5
15412,Maralinga,3388,Found,1974,-30.3,131.26667,CK4-an
15451,Mayo Belwa,4850,Fell,1974,8.96667,12.08333,Aubrite
16909,Naragh,2700,Fell,1974,33.75,51.5,H6
18028,Orimattila,1872,Found,1974,60.58333,25.58333,H4
23080,Saint Augustine,22000,Found,1974,40.71667,-90.41667,"Iron, IID"
24016,Tokio (a),6600,Found,1974,33.21667,-102.63167,H5
24391,Yamato 74013,2059.5,Found,1974,-71.83667,36.30417,Diogenite
24392,Yamato 74014,2367.9,Found,1974,-71.83556,36.30278,H6
24455,Yamato 74077,5575.1,Found,1974,-71.83556,36.35833,L6
24475,Yamato 74097,2193.9,Found,1974,-71.825,36.325,Diogenite
24493,Yamato 74115,1045.1,Found,1974,-71.80833,36.1375,H5
24533,Yamato 74155,3073.4,Found,1974,-71.81833,36.11944,H4
24568,Yamato 74190,3235.7,Found,1974,-71.83056,35.44444,L6
24569,Yamato 74191,1091.6,Found,1974,-71.83333,35.51944,L3.7
24571,Yamato 74193,1818.5,Found,1974,-71.64306,35.59444,H5
24732,Yamato 74354,2721.1,Found,1974,-71.76944,35.76111,L6
24740,Yamato 74362,4175,Found,1974,-71.78889,35.80278,L6
24749,Yamato 74371,5067.9,Found,1974,-71.80417,35.49444,H4
24823,Yamato 74445,2293.2,Found,1974,-71.73889,35.93611,L6
24837,Yamato 74459,1719.7,Found,1974,-71.72639,35.975,H6
25018,Yamato 74640,1065.9,Found,1974,-71.71389,35.99722,H6
25025,Yamato 74647,2323.8,Found,1974,-71.69583,36.01667,H5
5132,Brandon,7580,Found,1975,40.81,-101.80167,L6/7
5407,Colony,3912,Found,1975,35.35,-98.68333,CO3.0
6661,Denver City,26100,Found,1975,33.07139,-102.80028,"Iron, ungrouped"
7759,Eads,4860,Found,1975,38.47,-102.82667,H4
10170,Foster,1992,Found,1975,33.1,-102.26667,H4
11831,Harlowton,4000,Found,1975,46.43333,-109.83333,"Iron, IAB-ung"
11863,Haxtun,15500,Found,1975,40.45667,-102.57834,H/L4
12004,Ijopega,7330,Fell,1975,-6.03333,145.36667,H6
12350,Kossuth,5900,Found,1975,40.66667,-84.35,"Iron, IVA"
15404,Mangalo,1050,Found,1975,-33.56667,136.65,L6
15465,Meadow (a),1495,Found,1975,33.33139,-102.26889,H5
16644,Millen,40800,Found,1975,32.83528,-81.87389,H4
16918,Naryilco,27000,Found,1975,-28.6,141.15,LL6
16980,Ningbo,14250,Fell,1975,29.86667,121.48333,"Iron, IVA"
18794,Perryton,2114,Found,1975,36.35333,-100.73167,LL6
22391,Rancho Gomelia,15650,Found,1975,24.51667,-105.25,"Iron, IIIAB"
22538,Red Deer Hill,2510,Found,1975,53.075,-105.84167,L6
23714,Starvation Lake,12000,Found,1975,-30.46667,141.08333,LL3.9
23795,Tambakwatu,10500,Fell,1975,-7.75,112.76667,L6
24086,Tuxtuac,30000,Fell,1975,21.66667,-103.36667,LL5
24347,Xinyi,69000,Found,1975,34.36667,118.33333,H5
25069,Yamato 75028,6100,Found,1975,-71.5,35.66667,H3-6
25138,Yamato 75097,2570.2,Found,1975,-71.5,35.66667,L6
25143,Yamato 75102,11000,Found,1975,-71.5,35.66667,L4/5
25312,Yamato 75271,1797.5,Found,1975,-71.5,35.66667,L5
48651,Ban Cho Lae,3354,Found,1975,19.08833,99.01389,H5
53635,Llano River,4318,Found,1975,30.52213,-99.73698,"Iron, IIIAB"
10,Acapulco,1914,Fell,1976,16.88333,-99.9,Acapulcoite
1308,Allan Hills A76001,20151,Found,1976,-76.75,159.33333,L6
1309,Allan Hills A76002,1510,Found,1976,-76.71667,159.66667,"Iron, IAB-MG"
1310,Allan Hills A76003,10495,Found,1976,-76.71667,159.66667,L6
1312,Allan Hills A76005,1425,Found,1976,-76.71667,159.66667,Eucrite-pmict
1313,Allan Hills A76006,1137,Found,1976,-76.71667,159.66667,H6
1315,Allan Hills A76008,1150,Found,1976,-76.71667,159.66667,H6
1316,Allan Hills A76009,407000,Found,1976,-76.71667,159.66667,L6
2287,Alvord,17500,Found,1976,43.32222,-96.28889,"Iron, IVA"
6698,Dhajala,45000,Fell,1976,22.37778,71.42722,H3.8
7748,Dunganville,54000,Found,1976,-42.55,171.35,"Iron, IIIAB"
10117,Fluvanna (b),4110,Found,1976,32.90333,-101.16278,H6
10937,Gnowangerup,33600,Found,1976,-34,118.1,"Iron, IIIAB"
11816,Hangman Crossing,1300,Found,1976,38.91972,-85.94722,H4
11861,Haviland (b),2092,Found,1976,37.59667,-99.125,H5
12084,Jerslev,40000,Found,1976,55.608833,11.229167,"Iron, IIAB"
12171,Jilin,4000000,Fell,1976,44.05,126.16667,H5
12312,Kimbolton,7500,Found,1976,-40.07139,175.73028,H4
